ARPT_ID,ARPT_NAME,CITY,STATE_NAME,predicted_score,cert_importance_score,is_military_relevant,LAT_DECIMAL,LONG_DECIMAL
UUO,WILLOW,WILLOW,ALASKA,80.05916463666667,0.0,1,61.75418888,-150.05173888
OBI,WOODBINE MUNI,WOODBINE,NEW JERSEY,79.97398329016823,0.0,1,39.21913888,-74.79475
FDR,FREDERICK RGNL,FREDERICK,OKLAHOMA,79.8884120950937,0.0,1,34.3520958,-98.98390908
GUS,GRISSOM ARB,PERU,INDIANA,79.70827937211945,0.0,1,40.64809166,-86.15211944
0S9,JEFFERSON COUNTY INTL,PORT TOWNSEND,WASHINGTON,79.69769344745211,0.0,1,48.05380555,-122.81063888
OWK,CENTRAL MAINE/NORRIDGEWOCK,NORRIDGEWOCK,MAINE,79.68829593708733,0.0,1,44.7155,-69.86647222
PNN,PRINCETON MUNI,PRINCETON,MAINE,79.68829593708733,0.0,1,45.20065972,-67.56439888
X59,VALKARIA,VALKARIA,FLORIDA,79.64496689467362,0.0,1,27.96086555,-80.55832777
X26,SEBASTIAN MUNI,SEBASTIAN,FLORIDA,79.62804025031107,0.0,1,27.81325,-80.49558333
EZI,KEWANEE MUNI,KEWANEE,ILLINOIS,79.62312990452398,0.0,1,41.20519444,-89.96386111
ONY,OLNEY MUNI,OLNEY,TEXAS,79.61039669734751,0.0,1,33.35088888,-98.81916666
PWD,SHER-WOOD,PLENTYWOOD,MONTANA,79.60178322358094,0.0,1,48.79051555,-104.52373833
UCP,NEW CASTLE MUNI,NEW CASTLE,PENNSYLVANIA,79.55681754690282,0.0,1,41.02533305,-80.41336277
1B0,DEXTER RGNL,DEXTER,MAINE,79.53394600120434,0.0,1,45.0045075,-69.23743666
CIR,CAIRO RGNL,CAIRO,ILLINOIS,79.52188091037083,0.0,1,37.06413888,-89.21952777
OWP,WILLIAM R POGUE MUNI,SAND SPRINGS,OKLAHOMA,79.4958960410494,0.0,1,36.17527777,-96.15183333
DAW,SKYHAVEN,ROCHESTER,NEW HAMPSHIRE,79.47641584252956,0.0,1,43.28423483,-70.9295495
HRU,HERINGTON RGNL,HERINGTON,KANSAS,79.4626171988009,0.0,1,38.69472222,-96.80797222
HIE,MOUNT WASHINGTON RGNL,WHITEFIELD,NEW HAMPSHIRE,79.45586084866962,0.0,1,44.36755555,-71.54580555
RCM,SKYHAVEN,WARRENSBURG,MISSOURI,79.45243566320771,0.0,1,38.78417111,-93.80285416
SLO,SALEM-LECKRONE,SALEM,ILLINOIS,79.42390454541196,0.0,1,38.64287222,-88.96418527
FTT,ELTON HENSLEY MEML,FULTON,MISSOURI,79.42063189490815,0.0,1,38.83811111,-92.00258333
79S,FORT BENTON,FORT BENTON,MONTANA,79.40137544854952,0.0,1,47.84418888,-110.63686111
1K4,DAVID JAY PERRY,GOLDSBY,OKLAHOMA,79.39965408084956,0.0,1,35.1550675,-97.47039388
LZD,DANIELSON,DANIELSON,CONNECTICUT,79.3413985639602,0.0,1,41.81975,-71.90097222
SET,ST CHARLES COUNTY RGNL/SMARTT FLD,ST CHARLES,MISSOURI,79.30199789430822,0.0,1,38.92969444,-90.42997222
F01,QUANAH MUNI,QUANAH,TEXAS,79.2959134216678,0.0,1,34.27711083,-99.75968166
Y19,MANDAN RGNL/LAWLER FLD,MANDAN,NORTH DAKOTA,79.29058626745767,0.0,1,46.76797222,-100.89436111
3O4,SAYRE MUNI,SAYRE,OKLAHOMA,79.28170097032653,0.0,1,35.16770916,-99.65780611
PLU,PIERCE COUNTY/THUN FLD,PUYALLUP,WASHINGTON,79.28065726981525,0.0,1,47.10392,-122.28720027
PKD,PARK RAPIDS MUNI/KONSHOK FLD,PARK RAPIDS,MINNESOTA,79.26890101449715,0.0,1,46.9012038,-95.07310625
MVI,MONTE VISTA MUNI,MONTE VISTA,COLORADO,79.24835301429425,0.0,1,37.52872611,-106.04589777
08K,HARVARD STATE,HARVARD,NEBRASKA,79.23856768884593,0.0,1,40.65133333,-98.07988888
W78,WILLIAM M TUCK,SOUTH BOSTON,VIRGINIA,79.21324599836998,0.0,1,36.70937241,-78.84833747
LTY,LIBERTY COUNTY,CHESTER,MONTANA,79.20216323041915,0.0,1,48.51072222,-110.99086388
OLF,L M CLAYTON,WOLF POINT,MONTANA,79.19481806743786,0.0,1,48.0945,-105.57505555
1S3,TILLITT FLD,FORSYTH,MONTANA,79.18916106617955,0.0,1,46.27115077,-106.62390211
SCB,SCRIBNER STATE,SCRIBNER,NEBRASKA,79.16714512955282,0.0,1,41.61070763,-96.62977875
DLO,DELANO MUNI,DELANO,CALIFORNIA,79.14704804161059,0.0,1,35.74555555,-119.2365
LLR,LITTLE RIVER,LITTLE RIVER,CALIFORNIA,79.14704804161059,0.0,1,39.26205555,-123.75377777
C75,MARSHALL COUNTY,LACON,ILLINOIS,79.14534598982877,0.0,1,41.01883333,-89.38577777
4V0,RANGELY,RANGELY,COLORADO,79.13902011217311,0.0,1,40.09397222,-108.76305555
CTK,INGERSOLL,CANTON,ILLINOIS,79.13811620146532,0.0,1,40.56908333,-90.07483333
AAA,LOGAN COUNTY,LINCOLN,ILLINOIS,79.12963426570789,0.0,1,40.15869444,-89.33502777
HTL,ROSCOMMON COUNTY/BLODGETT MEML,HOUGHTON LAKE,MICHIGAN,79.12523498977271,0.0,1,44.35986902,-84.66948302
4M3,CARLISLE MUNI,CARLISLE,ARKANSAS,79.1238370468099,0.0,1,34.80822222,-91.71211111
M73,ALMYRA MUNI,ALMYRA,ARKANSAS,79.1238370468099,0.0,1,34.41247944,-91.46530555
RBO,NUECES COUNTY,ROBSTOWN,TEXAS,79.12377987430872,0.0,1,27.77813888,-97.69011111
PMB,PEMBINA MUNI,PEMBINA,NORTH DAKOTA,79.12246398369383,0.0,1,48.94241666,-97.24066666
D50,CROSBY MUNI,CROSBY,NORTH DAKOTA,79.12206048975214,0.0,1,48.92829944,-103.29758166
BKN,BLACKWELL-TONKAWA MUNI,BLACKWELL,OKLAHOMA,79.12142596736768,0.0,1,36.74511111,-97.34958333
LIU,LITTLEFIELD TAYLOR BROWN MUNI,LITTLEFIELD,TEXAS,79.12084058052093,0.0,1,33.92394419,-102.38667377
MXA,MANILA MUNI,MANILA,ARKANSAS,79.11893983393296,0.0,1,35.89444722,-90.15457055
FMZ,FAIRMONT STATE,FAIRMONT,NEBRASKA,79.10821393465338,0.0,1,40.58609758,-97.57313655
TKV,TOMAHAWK RGNL,TOMAHAWK,WISCONSIN,79.07957466093917,0.0,1,45.46936111,-89.80488888
OCQ,OCONTO/J DOUGLAS BAKE MUNI,OCONTO,WISCONSIN,79.07491862505722,0.0,1,44.87405555,-87.90977
SLQ,SLEETMUTE,SLEETMUTE,ALASKA,79.07477776179695,0.0,1,61.70050944,-157.16584972
8D1,NEW HOLSTEIN MUNI,NEW HOLSTEIN,WISCONSIN,79.0701506957715,0.0,1,43.94410458,-88.11484169
Y70,IONIA COUNTY,IONIA,MICHIGAN,79.06748592163298,0.0,1,42.93792786,-85.06057302
OGM,ONTONAGON COUNTY/SCHUSTER FLD,ONTONAGON,MICHIGAN,79.06642149211879,0.0,1,46.84547027,-89.36709166
MVE,MONTEVIDEO-CHIPPEWA COUNTY,MONTEVIDEO,MINNESOTA,79.06239901159054,0.0,1,44.96919444,-95.71038888
17J,DONALSONVILLE MUNI,DONALSONVILLE,GEORGIA,79.0581327581504,0.0,1,31.00650722,-84.87763666
U52,BEAVER MUNI,BEAVER,UTAH,79.0549481762349,0.0,1,38.23058333,-112.67541666
HSR,HOT SPRINGS MUNI,HOT SPRINGS,SOUTH DAKOTA,79.0535715605298,0.0,1,43.36830555,-103.38827777
CNH,CLAREMONT MUNI,CLAREMONT,NEW HAMPSHIRE,79.04895401314738,0.0,1,43.37050444,-72.36820694
TOA,ZAMPERINI FLD,TORRANCE,CALIFORNIA,79.04776401357327,0.0,1,33.80338286,-118.33960763
TNP,TWENTYNINE PALMS,TWENTYNINE PALMS,CALIFORNIA,79.03566938024478,0.0,1,34.13158333,-115.94580555
TAN,TAUNTON MUNI/KING FLD,TAUNTON,MASSACHUSETTS,79.01762230190785,0.0,1,41.87408027,-71.01523277
O81,TULELAKE MUNI,TULELAKE,CALIFORNIA,79.00953935415453,0.0,1,41.89064611,-121.36061972
3D2,EPHRAIM/GIBRALTAR,EPHRAIM,WISCONSIN,78.99366279606807,0.0,1,45.13542388,-87.1879425
4G1,GREENVILLE MUNI,GREENVILLE,PENNSYLVANIA,78.9903571298417,0.0,1,41.44676644,-80.39119675
TVY,BOLINDER FLD/TOOELE VALLEY,TOOELE,UTAH,78.97698751555437,0.0,1,40.61255333,-112.3507775
1G3,KENT STATE UNIVERSITY,KENT,OHIO,78.97644140124959,0.0,1,41.15138888,-81.41511111
3CU,CABLE UNION,CABLE,WISCONSIN,78.97210884076785,0.0,1,46.19493305,-91.24845305
6M0,HAZEN MUNI DAVID DUCH FLD,HAZEN,ARKANSAS,78.97196295621595,0.0,1,34.75921388,-91.63804583
1B9,MANSFIELD MUNI,MANSFIELD,MASSACHUSETTS,78.97122762172012,0.0,1,42.00087916,-71.19804111
3R4,HART,MANY,LOUISIANA,78.97121252918875,0.0,1,31.54424722,-93.48380555
CZG,TRI-CITIES,ENDICOTT,NEW YORK,78.97044034971691,0.0,1,42.07853416,-76.09633055
3B0,SOUTHBRIDGE MUNI,SOUTHBRIDGE,MASSACHUSETTS,78.9627480196604,0.0,1,42.10111111,-72.03883333
FHR,FRIDAY HARBOR,FRIDAY HARBOR,WASHINGTON,78.94735659373684,0.0,1,48.52197222,-123.02436111
PHP,PHILIP,PHILIP,SOUTH DAKOTA,78.94660321983739,0.0,1,44.04873063,-101.59884047
ACQ,WASECA MUNI/MAYNARD RICHARD STENSRUD FLD,WASECA,MINNESOTA,78.94331875030088,0.0,1,44.07347222,-93.55294416
6B0,MIDDLEBURY STATE,MIDDLEBURY,VERMONT,78.9417481573423,0.0,1,43.98647194,-73.09555166
HAF,HALF MOON BAY,HALF MOON BAY,CALIFORNIA,78.92040386134244,0.0,1,37.51344444,-122.50116666
O15,TURLOCK MUNI,TURLOCK,CALIFORNIA,78.91649659024792,0.0,1,37.48402777,-120.69733333
08A,WETUMPKA MUNI,WETUMPKA,ALABAMA,78.90204345196454,0.0,1,32.52733333,-86.33102777
6D9,IOSCO COUNTY,EAST TAWAS,MICHIGAN,78.89278512004711,0.0,1,44.31283333,-83.42230555
RNP,OWOSSO COMMUNITY,OWOSSO,MICHIGAN,78.89278512004711,0.0,1,42.99297222,-84.1385
TEW,MASON JEWETT FLD,MASON,MICHIGAN,78.89093602719782,0.0,1,42.56576777,-84.42320611
3CM,JAMES CLEMENTS MUNI,BAY CITY,MICHIGAN,78.88801719076139,0.0,1,43.54694444,-83.89547222
LXL,LITTLE FALLS/MORRISON COUNTY-LINDBERGH FLD,LITTLE FALLS,MINNESOTA,78.8850728155135,0.0,1,45.949065,-94.34703638
FSE,FOSSTON MUNI/ANDERSON FLD,FOSSTON,MINNESOTA,78.88383366360607,0.0,1,47.59282972,-95.77348666
D09,BOTTINEAU MUNI,BOTTINEAU,NORTH DAKOTA,78.88077636499776,0.0,1,48.83047222,-100.41730555
C73,DIXON MUNI-CHARLES R WALGREEN FLD,DIXON,ILLINOIS,78.87904297392713,0.0,1,41.83369888,-89.44621333
HIG,HIGGINSVILLE INDUSTRIAL MUNI,HIGGINSVILLE,MISSOURI,78.87378847013046,0.0,1,39.07244444,-93.67736111
BUM,BUTLER MEML,BUTLER,MISSOURI,78.87378847013046,0.0,1,38.28976722,-94.34012777
IGG,IGIUGIG,IGIUGIG,ALASKA,78.86983937157636,0.0,1,59.32404166,-155.90177277
U34,GREEN RIVER MUNI,GREEN RIVER,UTAH,78.86733233264967,0.0,1,38.96168861,-110.22728777
S87,WEISER MUNI,WEISER,IDAHO,78.86573065890748,0.0,1,44.20466666,-116.96052777
DXX,LAC QUI PARLE COUNTY,MADISON,MINNESOTA,78.85436220924689,0.0,1,44.98643527,-96.1778595
S40,PROSSER,PROSSER,WASHINGTON,78.84763142477328,0.0,1,46.21336111,-119.79555555
O37,HAIGH FLD,ORLAND,CALIFORNIA,78.83181003008413,0.0,1,39.72038888,-122.14636111
L18,FALLBROOK COMMUNITY AIRPARK,FALLBROOK,CALIFORNIA,78.83181003008413,0.0,1,33.35467416,-117.25028527
BNG,BANNING MUNI,BANNING,CALIFORNIA,78.83181003008413,0.0,1,33.92255555,-116.85097222
I42,PAOLI MUNI,PAOLI,INDIANA,78.80653622099314,0.0,1,38.58480388,-86.46494833
Y74,PARSHALL-HANKINS,PARSHALL,NORTH DAKOTA,78.80145788758381,0.0,1,47.93568472,-102.14212444
FBY,FAIRBURY MUNI,FAIRBURY,NEBRASKA,78.77084357487705,0.0,1,40.18197222,-97.16788888
HQG,HUGOTON MUNI,HUGOTON,KANSAS,78.76251345652672,0.0,1,37.16335833,-101.3706775
U82,COUNCIL MUNI,COUNCIL,IDAHO,78.75096185321057,0.0,1,44.75033333,-116.44505555
W41,CRISFIELD-SOMERSET COUNTY,CRISFIELD,MARYLAND,78.73833402939222,0.0,1,38.01816666,-75.82686111
GZL,STIGLER RGNL,STIGLER,OKLAHOMA,78.73431461778003,0.0,1,35.28816666,-95.09388888
I18,JACKSON COUNTY,RAVENSWOOD,WEST VIRGINIA,78.72266369491628,0.0,1,38.92977777,-81.81947222
N35,PUNXSUTAWNEY MUNI,PUNXSUTAWNEY,PENNSYLVANIA,78.72175572574018,0.0,1,40.96683666,-78.92990444
B19,BIDDEFORD MUNI,BIDDEFORD,MAINE,78.71834702344479,0.0,1,43.46411111,-70.47238888
UKT,QUAKERTOWN,QUAKERTOWN,PENNSYLVANIA,78.71247432254206,0.0,1,40.43513888,-75.38194444
K78,ABILENE MUNI,ABILENE,KANSAS,78.70941524137059,0.0,1,38.90405555,-97.23586111
2K7,NEODESHA MUNI,NEODESHA,KANSAS,78.70941524137059,0.0,1,37.43536444,-95.64611888
LQR,LARNED-PAWNEE COUNTY,LARNED,KANSAS,78.70849246934361,0.0,1,38.20860408,-99.08591408
U03,BUHL MUNI,BUHL,IDAHO,78.69696616803222,0.0,1,42.59738888,-114.80063888
MKA,MILLER MUNI,MILLER,SOUTH DAKOTA,78.6891836414619,0.0,1,44.52523888,-98.95807916
9G8,EBENSBURG,EBENSBURG,PENNSYLVANIA,78.68605888213827,0.0,1,40.46125416,-78.77531138
4E7,ELLENDALE MUNI,ELLENDALE,NORTH DAKOTA,78.67973364862516,0.0,1,46.01633333,-98.51569444
69V,HUNTINGTON MUNI,HUNTINGTON,UTAH,78.6796884445203,0.0,1,39.36122472,-110.91698055
48D,CLARE MUNI,CLARE,MICHIGAN,78.67501320432683,0.0,1,43.83444444,-84.74022222
FPK,FITCH H BEACH,CHARLOTTE,MICHIGAN,78.67316411147755,0.0,1,42.57408888,-84.81209722
S32,COOPERSTOWN MUNI,COOPERSTOWN,NORTH DAKOTA,78.67274109166021,0.0,1,47.42277361,-98.10587138
LCG,WAYNE MUNI/STAN MORRIS FLD,WAYNE,NEBRASKA,78.65346411525269,0.0,1,42.24160575,-96.982271
4V9,ANTELOPE COUNTY,NELIGH,NEBRASKA,78.65346411525269,0.0,1,42.11225,-98.03977777
TQE,TEKAMAH MUNI,TEKAMAH,NEBRASKA,78.65346411525269,0.0,1,41.76353705,-96.177939
S12,ALBANY MUNI,ALBANY,OREGON,78.65183580582217,0.0,1,44.63781527,-123.05944888
0F4,LOUP CITY MUNI,LOUP CITY,NEBRASKA,78.64968308176722,0.0,1,41.28636111,-98.99002777
W96,NEW KENT COUNTY,QUINTON,VIRGINIA,78.623200903853,0.0,1,37.50342944,-77.12655833
K34,GARDNER MUNI,GARDNER,KANSAS,78.62112931588418,0.0,1,38.80684833,-94.95674944
RSL,RUSSELL MUNI,RUSSELL,KANSAS,78.6192453682055,0.0,1,38.87136358,-98.81160372
DSV,DANSVILLE MUNI,DANSVILLE,NEW YORK,78.60687368688805,0.0,1,42.57053138,-77.71327277
07F,GLADEWATER MUNI,GLADEWATER,TEXAS,78.60651070101127,0.0,1,32.52883333,-94.97175
SWI,SHERMAN MUNI,SHERMAN,TEXAS,78.60651070101127,0.0,1,33.62413888,-96.58613888
IDL,INDIANOLA MUNI,INDIANOLA,MISSISSIPPI,78.59825564598181,0.0,1,33.48572222,-90.67888888
9V5,MODISETT,RUSHVILLE,NEBRASKA,78.58889024614652,0.0,1,42.73657547,-102.44436013
RMY,BROOKS FLD,MARSHALL,MICHIGAN,78.58487818599113,0.0,1,42.25119316,-84.9554443
RBE,ROCK COUNTY,BASSETT,NEBRASKA,78.58044290797105,0.0,1,42.57112577,-99.56952019
2K4,SCOTT FLD,MANGUM,OKLAHOMA,78.57847181021671,0.0,1,34.89261111,-99.52822222
O35,HOLLIS MUNI,HOLLIS,OKLAHOMA,78.57725259193037,0.0,1,34.70530527,-99.90856472
5NK,NAKNEK,NAKNEK,ALASKA,78.57380057883252,0.0,1,58.73466286,-157.02521041
01G,PERRY-WARSAW,PERRY,NEW YORK,78.56040256065656,0.0,1,42.74134861,-78.05214805
OIN,OBERLIN MUNI,OBERLIN,KANSAS,78.55897010260726,0.0,1,39.83438444,-100.53983416
HZR,FALSE RIVER RGNL,NEW ROADS,LOUISIANA,78.5552999951252,0.0,1,30.71833333,-91.47866666
4S2,KEN JERNSTEDT AIRFIELD,HOOD RIVER,OREGON,78.55396279205918,0.0,1,45.67277677,-121.53386386
AOC,ARCO-BUTTE COUNTY,ARCO,IDAHO,78.54614287858628,0.0,1,43.60352777,-113.33425
W31,LUNENBURG COUNTY,KENBRIDGE,VIRGINIA,78.54123589660391,0.0,1,36.96040277,-78.18511111
2F7,COMMERCE MUNI,COMMERCE,TEXAS,78.54078911069276,0.0,1,33.29286111,-95.89641666
M48,HOUSTON MEML,HOUSTON,MISSOURI,78.53948221193411,0.0,1,37.33022222,-91.97316666
70J,CAIRO-GRADY COUNTY,CAIRO,GEORGIA,78.5317000699725,0.0,1,30.88797222,-84.15472222
REI,REDLANDS MUNI,REDLANDS,CALIFORNIA,78.52850371448295,0.0,1,34.08525,-117.14638888
L08,BORREGO VALLEY,BORREGO SPRINGS,CALIFORNIA,78.52850371448295,0.0,1,33.25902777,-116.32097222
4U6,CIRCLE TOWN COUNTY,CIRCLE,MONTANA,78.5204342155813,0.0,1,47.41833333,-105.56088888
MNF,MOUNTAIN VIEW,MOUNTAIN VIEW,MISSOURI,78.5025121603265,0.0,1,36.99283333,-91.71447222
3GV,EAST KANSAS CITY,GRAIN VALLEY,MISSOURI,78.50218474972702,0.0,1,39.01464119,-94.21485844
F56,ARLEDGE FLD,STAMFORD,TEXAS,78.50177519217891,0.0,1,32.91047222,-99.73416666
U68,NORTH BIG HORN COUNTY,COWLEY/LOVELL/BYRON,WYOMING,78.49964923273097,0.0,1,44.91166666,-108.4455
13K,LT WILLIAM M MILLIKEN,EUREKA,KANSAS,78.48066228924111,0.0,1,37.85161611,-96.29202444
JSY,JOSEPH STATE,JOSEPH,OREGON,78.47653790472911,0.0,1,45.35954972,-117.25383888
MAL,MALONE-DUFORT,MALONE,NEW YORK,78.47112240016592,0.0,1,44.85366666,-74.32894444
3K3,SYRACUSE-HAMILTON COUNTY MUNI,SYRACUSE,KANSAS,78.47052362539903,0.0,1,37.99858305,-101.74760777
3P3,MOTT MUNI,MOTT,NORTH DAKOTA,78.46266528496278,0.0,1,46.35916194,-102.32824416
VUO,PEARSON FLD,VANCOUVER,WASHINGTON,78.45776350676314,0.0,1,45.6204525,-122.65648833
O52,SUTTER COUNTY,YUBA CITY,CALIFORNIA,78.45225190740192,0.0,1,39.12366666,-121.60536111
H92,HOMINY MUNI,HOMINY,OKLAHOMA,78.45087605115094,0.0,1,36.44275,-96.38722222
EIW,COUNTY MEML,NEW MADRID,MISSOURI,78.43720974875455,0.0,1,36.53530555,-89.59972222
4D0,ABRAMS MUNI,GRAND LEDGE,MICHIGAN,78.43426456280034,0.0,1,42.77488194,-84.73313638
1H8,CASEY MUNI,CASEY,ILLINOIS,78.4325537128726,0.0,1,39.30250916,-88.00406194
WAY,GREENE COUNTY,WAYNESBURG,PENNSYLVANIA,78.42119821663792,0.0,1,39.90113888,-80.13069444
1D8,REDFIELD MUNI,REDFIELD,SOUTH DAKOTA,78.41562051910876,0.0,1,44.85656722,-98.53122833
8D3,SISSETON MUNI,SISSETON,SOUTH DAKOTA,78.41243366819397,0.0,1,45.6695275,-96.99358555
26R,JACKSON COUNTY,EDNA,TEXAS,78.39721206977657,0.0,1,29.00099916,-96.58196194
CKI,WILLIAMSBURG RGNL,KINGSTREE,SOUTH CAROLINA,78.3855127883378,0.0,1,33.71722222,-79.85697222
S78,EMMETT MUNI,EMMETT,IDAHO,78.38047917079315,0.0,1,43.85265,-116.53906944
H04,VINITA MUNI,VINITA,OKLAHOMA,78.37906906430307,0.0,1,36.61461627,-95.15169477
C66,MONMOUTH MUNI,MONMOUTH,ILLINOIS,78.36772448140195,0.0,1,40.92970444,-90.63110722
UBX,CUBA MUNI,CUBA,MISSOURI,78.36772448140195,0.0,1,38.06877305,-91.42885861
14J,CARL FOLSOM,ELBA,ALABAMA,78.36764631189767,0.0,1,31.41004166,-86.09033611
94K,CASSVILLE MUNI,CASSVILLE,MISSOURI,78.36739707080247,0.0,1,36.69740527,-93.90052527
9F8,HOVEN MUNI,HOVEN,SOUTH DAKOTA,78.3548849992925,0.0,1,45.25755861,-99.79783944
S85,BIG SKY FLD,CULBERTSON,MONTANA,78.34654826116912,0.0,1,48.15355972,-104.50405555
1D1,MILBANK MUNI,MILBANK,SOUTH DAKOTA,78.34279461900117,0.0,1,45.2305,-96.56608333
AGZ,WAGNER MUNI,WAGNER,SOUTH DAKOTA,78.34279461900117,0.0,1,43.06416613,-98.29638208
50K,PAWNEE CITY MUNI,PAWNEE CITY,NEBRASKA,78.33314715058548,0.0,1,40.11616666,-96.19486111
6K3,CREIGHTON MUNI,CREIGHTON,NEBRASKA,78.33314715058548,0.0,1,42.47127777,-97.88475
1D6,HECTOR MUNI,HECTOR,MINNESOTA,78.32496871618834,0.0,1,44.73110252,-94.713786
1L1,LINCOLN COUNTY,PANACA,NEVADA,78.32299371952263,0.0,1,37.78741666,-114.41988888
0G3,TECUMSEH MUNI,TECUMSEH,NEBRASKA,78.32222710860383,0.0,1,40.40094444,-96.17044444
02G,COLUMBIANA COUNTY,EAST LIVERPOOL,OHIO,78.31835311369403,0.0,1,40.67330555,-80.64141666
C47,PORTAGE MUNI,PORTAGE,WISCONSIN,78.31445234172301,0.0,1,43.56026222,-89.48291138
FXY,FOREST CITY MUNI/TRIMBLE FLD,FOREST CITY,IOWA,78.31132983281708,0.0,1,43.23475691,-93.62410394
L19,WASCO-KERN COUNTY,WASCO,CALIFORNIA,78.2938266454368,0.0,1,35.61986111,-119.35372222
M36,FRANK FEDERER MEML,BRINKLEY,ARKANSAS,78.29012958189179,0.0,1,34.88027777,-91.17644444
24A,JACKSON COUNTY,SYLVA,NORTH CAROLINA,78.27569518654263,0.0,1,35.31721111,-83.20970361
D55,ROBERTSON FLD,LANGDON,NORTH DAKOTA,78.26381302416208,0.0,1,48.75313063,-98.39376916
82A,MARION COUNTY,BUENA VISTA,GEORGIA,78.26176598774676,0.0,1,32.28280555,-84.50369444
KIC,MESA DEL REY,KING CITY,CALIFORNIA,78.26159987749314,0.0,1,36.22855555,-121.12130555
EKA,MURRAY FLD,EUREKA,CALIFORNIA,78.26159987749314,0.0,1,40.80339805,-124.11279027
6A1,BUTLER MUNI,BUTLER,GEORGIA,78.2568056088305,0.0,1,32.56823583,-84.2466875
S36,NORMAN GRIER FLD,KENT,WASHINGTON,78.25336646743399,0.0,1,47.33709666,-122.10353638
AUH,AURORA MUNI/AL POTTER FLD,AURORA,NEBRASKA,78.24940120849624,0.0,1,40.89413888,-97.99455555
S72,JACK A BUELL,ST MARIES,IDAHO,78.24071901558598,0.0,1,47.32581111,-116.57667777
38U,WAYNE WONDERLAND,LOA,UTAH,78.24069179948773,0.0,1,38.36291444,-111.59598666
7V7,RED CLOUD MUNI,RED CLOUD,NEBRASKA,78.19206031251706,0.0,1,40.08216666,-98.54136111
35D,PADGHAM FLD,ALLEGAN,MICHIGAN,78.18205171826118,0.0,1,42.53043652,-85.823779
K57,GOULD PETERSON MUNI,TARKIO,MISSOURI,78.17251408795904,0.0,1,40.44548916,-95.36730638
8G2,CORRY-LAWRENCE,CORRY,PENNSYLVANIA,78.17237478150085,0.0,1,41.90755555,-79.64105555
N13,BLOOMSBURG MUNI,BLOOMSBURG,PENNSYLVANIA,78.17237478150085,0.0,1,40.99765055,-76.43524636
2F1,SHAMROCK MUNI,SHAMROCK,TEXAS,78.17210453041093,0.0,1,35.23461111,-100.18530555
93F,MIGNON LAIRD MUNI,CHEYENNE,OKLAHOMA,78.16931678429951,0.0,1,35.60323472,-99.7030125
80F,ANTLERS MUNI,ANTLERS,OKLAHOMA,78.16907854071806,0.0,1,34.19356805,-95.64986361
B21,SUGARLOAF RGNL,CARRABASSETT,MAINE,78.1676669625582,0.0,1,45.08531972,-70.2163225
81B,OXFORD COUNTY RGNL,OXFORD,MAINE,78.16390723966394,0.0,1,44.15744444,-70.48127777
CAR,CARIBOU MUNI,CARIBOU,MAINE,78.16275927338216,0.0,1,46.87163888,-68.01819444
4M8,CLARENDON MUNI,CLARENDON,ARKANSAS,78.15199885065371,0.0,1,34.64666888,-91.39472055
O47,PRAGUE MUNI,PRAGUE,OKLAHOMA,78.12330711402014,0.0,1,35.48077777,-96.71875
HJO,HANFORD MUNI,HANFORD,CALIFORNIA,78.11620529563311,0.0,1,36.31672222,-119.62766666
2F6,SKIATOOK MUNI,SKIATOOK,OKLAHOMA,78.1127138017534,0.0,1,36.35514416,-96.01072561
D42,SPRINGFIELD MUNI,SPRINGFIELD,MINNESOTA,78.10636437246706,0.0,1,44.23105555,-94.99891666
26N,OCEAN CITY MUNI,OCEAN CITY,NEW JERSEY,78.10169655850206,0.0,1,39.26347916,-74.60747638
61S,COTTAGE GROVE STATE,COTTAGE GROVE,OREGON,78.09475760365899,0.0,1,43.80407052,-123.03211616
S30,LEBANON STATE,LEBANON,OREGON,78.09436493921984,0.0,1,44.53113888,-122.92972222
F37,CARRIZOZO MUNI,CARRIZOZO,NEW MEXICO,78.0670718865769,0.0,1,33.64890277,-105.89622
FSW,FORT MADISON MUNI,FORT MADISON,IOWA,78.0491388210267,0.0,1,40.65911111,-91.32775
6K4,FAIRVIEW MUNI,FAIRVIEW,OKLAHOMA,78.04855748257002,0.0,1,36.29119444,-98.47580555
F08,EUFAULA MUNI,EUFAULA,OKLAHOMA,78.04543910639849,0.0,1,35.29830416,-95.62737083
1O4,THOMAS MUNI,THOMAS,OKLAHOMA,78.04543910639849,0.0,1,35.73366666,-98.73052777
EFW,JEFFERSON MUNI,JEFFERSON,IOWA,78.04528319945953,0.0,1,42.00983333,-94.34180555
N47,POTTSTOWN MUNI,POTTSTOWN,PENNSYLVANIA,78.04051251671663,0.0,1,40.26041666,-75.67083333
5A9,ROOSEVELT MEML,WARM SPRINGS,GEORGIA,78.03866062158538,0.0,1,32.9385,-84.69644444
O27,OAKDALE,OAKDALE,CALIFORNIA,78.03861162170934,0.0,1,37.75634361,-120.80020833
Y03,SPRINGFIELD MUNI,SPRINGFIELD,SOUTH DAKOTA,78.03786713068646,0.0,1,42.88112008,-97.9016255
3G9,BUTLER FARM SHOW,BUTLER,PENNSYLVANIA,78.03763581285409,0.0,1,40.85256444,-79.97477972
LRG,LINCOLN RGNL,LINCOLN,MAINE,78.0375993965499,0.0,1,45.36185,-68.53445777
7G9,CANTON MUNI,CANTON,SOUTH DAKOTA,78.03542112211493,0.0,1,43.309,-96.57121666
GDM,GARDNER MUNI,GARDNER,MASSACHUSETTS,78.02956986712151,0.0,1,42.54988305,-72.01601888
1L7,ESCALANTE MUNI,ESCALANTE,UTAH,78.02462748119332,0.0,1,37.74536111,-111.57016666
9D2,HARDING COUNTY,BUFFALO,SOUTH DAKOTA,77.99674183969542,0.0,1,45.57955497,-103.52891019
16J,DAWSON MUNI,DAWSON,GEORGIA,77.99083571781762,0.0,1,31.74328805,-84.41929138
0C4,PENDER MUNI,PENDER,NEBRASKA,77.99013648273382,0.0,1,42.11341811,-96.72781338
2H2,JERRY SUMNERS SR AURORA MUNI,AURORA,MISSOURI,77.98165694576925,0.0,1,36.96230555,-93.69533333
4R3,JACKSON MUNI,JACKSON,ALABAMA,77.96365636748878,0.0,1,31.47055972,-87.89590138
07K,CENTRAL CITY MUNI/LARRY REINEKE FLD,CENTRAL CITY,NEBRASKA,77.9613810496862,0.0,1,41.1115613,-98.05133561
31AZ,BENSON,BENSON,ARIZONA,77.96002840029378,0.0,1,31.96369444,-110.25979472
9S4,MINERAL COUNTY,SUPERIOR,MONTANA,77.9552428755705,0.0,1,47.16825944,-114.85374111
EGQ,EMMETSBURG MUNI,EMMETSBURG,IOWA,77.92375407636575,0.0,1,43.10205555,-94.70452777
EOE,NEWBERRY COUNTY,NEWBERRY,SOUTH CAROLINA,77.92094463826041,0.0,1,34.30933333,-81.64066666
5R4,HOLK FLD AT FOLEY MUNI,FOLEY,ALABAMA,77.91409194737764,0.0,1,30.42766666,-87.70097222
82V,PINE BLUFFS MUNI,PINE BLUFFS,WYOMING,77.90486620096874,0.0,1,41.15247222,-104.13475
7M4,OSCEOLA MUNI,OSCEOLA,ARKANSAS,77.90482923168261,0.0,1,35.69113888,-90.01011111
BVN,ALBION MUNI,ALBION,NEBRASKA,77.90421501260859,0.0,1,41.72857694,-98.05575972
M78,MALVERN MUNI,MALVERN,ARKANSAS,77.90421501260859,0.0,1,34.33331583,-92.76149944
PKF,PARK FALLS MUNI,PARK FALLS,WISCONSIN,77.88833115512598,0.0,1,45.95509063,-90.4244345
FKA,FILLMORE COUNTY,PRESTON,MINNESOTA,77.86604378631628,0.0,1,43.67675,-92.17975
3H4,HILLSBORO MUNI,HILLSBORO,NORTH DAKOTA,77.85472869848198,0.0,1,47.35940777,-97.06041638
00R,LIVINGSTON MUNI,LIVINGSTON,TEXAS,77.84802957473418,0.0,1,30.68586111,-95.01791666
5R8,DE QUINCY INDUSTRIAL AIRPARK,DE QUINCY,LOUISIANA,77.83797395172368,0.0,1,30.44108333,-93.47361111
CPU,CALAVERAS COUNTY/MAURY RASMUSSEN FLD,SAN ANDREAS,CALIFORNIA,77.83409120658393,0.0,1,38.14611111,-120.64816666
2O1,GANSNER FLD,QUINCY,CALIFORNIA,77.82425438278965,0.0,1,39.94391666,-120.94538888
48A,COCHRAN,COCHRAN,GEORGIA,77.81802409344293,0.0,1,32.40065805,-83.27840638
MEY,JAMES G WHITING MEML FLD,MAPLETON,IOWA,77.81427446411143,0.0,1,42.178295,-95.79364527
MPG,MARSHALL COUNTY,MOUNDSVILLE,WEST VIRGINIA,77.81068169063673,0.0,1,39.88083333,-80.73577777
DKR,HOUSTON COUNTY,CROCKETT,TEXAS,77.8102264884675,0.0,1,31.30697222,-95.40383333
PZQ,PRESQUE ISLE COUNTY,ROGERS CITY,MICHIGAN,77.80454179844276,0.0,1,45.40708333,-83.81286111
PRN,MAC CRENSHAW MEML,GREENVILLE,ALABAMA,77.79867705222162,0.0,1,31.84569444,-86.61075
MKV,MARKSVILLE MUNI,MARKSVILLE,LOUISIANA,77.76874749938928,0.0,1,31.09465333,-92.06905861
43A,MONTGOMERY COUNTY,STAR,NORTH CAROLINA,77.76248342471582,0.0,1,35.38464972,-79.79026638
2M0,PRINCETON-CALDWELL COUNTY,PRINCETON,KENTUCKY,77.7502150942093,0.0,1,37.11513216,-87.85708216
16D,PERHAM MUNI,PERHAM,MINNESOTA,77.73948765628263,0.0,1,46.61097222,-95.60611111
3A2,NEW TAZEWELL MUNI,TAZEWELL,TENNESSEE,77.72660911113562,0.0,1,36.40889722,-83.55718583
90F,BROKEN BOW MUNI,BROKEN BOW,OKLAHOMA,77.72507558106949,0.0,1,34.01316666,-94.75833333
K09,PISECO,PISECO,NEW YORK,77.71380626963756,0.0,1,43.453265,-74.51500805
04Y,HAWLEY MUNI,HAWLEY,MINNESOTA,77.70903066728113,0.0,1,46.88377777,-96.35061111
CWV,CLAXTON-EVANS COUNTY,CLAXTON,GEORGIA,77.7075235570697,0.0,1,32.1950575,-81.86931666
4S1,GOLD BEACH MUNI,GOLD BEACH,OREGON,77.70298452212792,0.0,1,42.41536111,-124.42491666
O08,COLUSA COUNTY,COLUSA,CALIFORNIA,77.70272564176602,0.0,1,39.179,-121.99333333
M77,HOWARD COUNTY,NASHVILLE,ARKANSAS,77.67972605604074,0.0,1,33.99719444,-93.83808333
GGF,GRANT MUNI,GRANT,NEBRASKA,77.67942421599294,0.0,1,40.87066336,-101.73387941
GOP,GATESVILLE MUNI,GATESVILLE,TEXAS,77.67665595572701,0.0,1,31.42093888,-97.79646388
13C,LAKEVIEW/GRIFFITH FLD,LAKEVIEW,MICHIGAN,77.65804640739054,0.0,1,43.45225,-85.26463888
DYT,SKY HARBOR,DULUTH,MINNESOTA,77.64009102342126,0.0,1,46.7221225,-92.04438583
ISB,SIBLEY MUNI,SIBLEY,IOWA,77.61491361646333,0.0,1,43.36935277,-95.75963888
RWV,CALDWELL MUNI,CALDWELL,TEXAS,77.6140536946953,0.0,1,30.51547427,-96.70408577
SKI,SAC CITY MUNI,SAC CITY,IOWA,77.61306452361404,0.0,1,42.37905555,-94.97961111
CPM,COMPTON/WOODLEY,COMPTON,CALIFORNIA,77.60776202754779,0.0,1,33.88991666,-118.24380555
O28,ELLS FLD/WILLITS MUNI,WILLITS,CALIFORNIA,77.6041965260621,0.0,1,39.45132888,-123.37233083
09J,JEKYLL ISLAND,JEKYLL ISLAND,GEORGIA,77.60108907210164,0.0,1,31.07447222,-81.42777777
CNC,CHARITON MUNI,CHARITON,IOWA,77.58186308199488,0.0,1,41.01961111,-93.35966666
5M1,DEWITT MUNI/WHITCOMB FLD,DE WITT,ARKANSAS,77.57223867594894,0.0,1,34.26227777,-91.3075
M13,POPLARVILLE/PEARL RIVER COUNTY,POPLARVILLE,MISSISSIPPI,77.56710145363797,0.0,1,30.78657638,-89.5045375
5C8,WASHBURN MUNI,WASHBURN,NORTH DAKOTA,77.56198702038229,0.0,1,47.35114888,-101.02589611
3W5,MEARS FLD,CONCRETE,WASHINGTON,77.54262037216,0.0,1,48.52983833,-121.75824888
49A,GILMER COUNTY,ELLIJAY,GEORGIA,77.52917250417798,0.0,1,34.62819444,-84.52655555
M23,JAMES H EASOM FLD,NEWTON,MISSISSIPPI,77.51771156538405,0.0,1,32.31200694,-89.13565
M24,DEAN GRIFFIN MEML,WIGGINS,MISSISSIPPI,77.51771156538405,0.0,1,30.843,-89.1615
Y83,SANDUSKY CITY,SANDUSKY,MICHIGAN,77.51488641442971,0.0,1,43.45563561,-82.84178119
0I8,CYNTHIANA-HARRISON COUNTY,CYNTHIANA,KENTUCKY,77.51415158424564,0.0,1,38.36616388,-84.28334444
K26,CARROLLTON MEML,CARROLLTON,MISSOURI,77.5056620098319,0.0,1,39.31216666,-93.50655555
CFE,BUFFALO MUNI,BUFFALO,MINNESOTA,77.50091701559893,0.0,1,45.15883333,-93.84330555
2A1,JAMESTOWN MUNI,JAMESTOWN,TENNESSEE,77.44473885889971,0.0,1,36.34970361,-84.94665333
MVM,MACHIAS VALLEY,MACHIAS,MAINE,77.42952014281782,0.0,1,44.70309555,-67.47859027
CHU,HOUSTON COUNTY,CALEDONIA,MINNESOTA,77.41340939909807,0.0,1,43.59635861,-91.50394638
5M0,HARTSELLE/MORGAN COUNTY RGNL,HARTSELLE,ALABAMA,77.41305048511144,0.0,1,34.40822222,-86.93294444
LSK,LUSK MUNI,LUSK,WYOMING,77.37778835609045,0.0,1,42.75380555,-104.40455555
A30,SCOTT VALLEY,FORT JONES,CALIFORNIA,77.3334081271228,0.0,1,41.55777777,-122.85494444
04M,CALHOUN COUNTY,PITTSBORO,MISSISSIPPI,77.29702030294041,0.0,1,33.93008333,-89.34327777
52A,MADISON MUNI,MADISON,GEORGIA,77.27395998273384,0.0,1,33.612125,-83.46044444
D73,CY NUNNALLY MEML,MONROE,GEORGIA,77.27395998273384,0.0,1,33.78252777,-83.69280555
68Y,WELLS MUNI,WELLS,MINNESOTA,77.25487519677701,0.0,1,43.74122083,-93.777175
10D,WINSTED MUNI,WINSTED,MINNESOTA,77.25487519677701,0.0,1,44.95385,-94.06539027
PHH,ROBERT F SWINNIE,ANDREWS,SOUTH CAROLINA,77.24157562014585,0.0,1,33.45169972,-79.52617666
X01,EVERGLADES AIRPARK,EVERGLADES CITY,FLORIDA,77.21192054648753,0.0,1,25.84886111,-81.39027777
M44,HOUSTON MUNI,HOUSTON,MISSISSIPPI,77.19133384763919,0.0,1,33.88649444,-89.022975
LUX,LAURENS COUNTY,LAURENS,SOUTH CAROLINA,77.1847063499748,0.0,1,34.50711111,-81.94694444
UOS,FRANKLIN COUNTY,SEWANEE,TENNESSEE,77.17422341793723,0.0,1,35.20514583,-85.89814722
SXL,SUMMERSVILLE,SUMMERSVILLE,WEST VIRGINIA,77.15028570807439,0.0,1,38.23163888,-80.87080555
4M1,CARROLL COUNTY,BERRYVILLE,ARKANSAS,77.09079543457645,0.0,1,36.38134194,-93.62454027
1A3,MARTIN CAMPBELL FLD,COPPERHILL,TENNESSEE,77.04489643628301,0.0,1,35.01581611,-84.34683111
RVN,HAWKINS COUNTY,ROGERSVILLE,TENNESSEE,77.03837594079528,0.0,1,36.45757916,-82.88503416
08M,CARTHAGE-LEAKE COUNTY,CARTHAGE,MISSISSIPPI,76.99376199509345,0.0,1,32.76158333,-89.53038888
33M,WATER VALLEY MUNI,WATER VALLEY,MISSISSIPPI,76.99376199509345,0.0,1,34.16786111,-89.68488888
1M2,BELZONI MUNI,BELZONI,MISSISSIPPI,76.98203137351626,0.0,1,33.14518055,-90.51528472
23M,CLARKE COUNTY,QUITMAN,MISSISSIPPI,76.96607673286363,0.0,1,32.0859545,-88.73902519
N97,HIATT,THOMASVILLE,NORTH CAROLINA,76.94449072642298,0.0,1,35.83013666,-80.10754472
3M9,WARREN MUNI/JOHN B FRAZER JR FLD,WARREN,ARKANSAS,76.91955595428873,0.0,1,33.56044333,-92.08538861
K67,OSWEGO MUNI,OSWEGO,KANSAS,76.88398278761109,0.0,1,37.15938888,-95.0415
M43,PRENTISS-JEFFERSON DAVIS COUNTY,PRENTISS,MISSISSIPPI,76.85295867120065,0.0,1,31.59530555,-89.90644444
6J4,SALUDA COUNTY,SALUDA,SOUTH CAROLINA,76.84805975776234,0.0,1,33.92679305,-81.79462777
52J,LEE COUNTY/BUTTERS FLD,BISHOPVILLE,SOUTH CAROLINA,76.83898580591102,0.0,1,34.244485,-80.23603361
5A4,OKOLONA MUNI/RICHARD STOVALL FLD,OKOLONA,MISSISSIPPI,76.83818637579614,0.0,1,34.01580555,-88.72619444
35A,"UNION COUNTY, TROY SHELTON FLD",UNION,SOUTH CAROLINA,76.83241250359244,0.0,1,34.68694916,-81.64116444
I96,COLUMBIA-ADAIR COUNTY,COLUMBIA,KENTUCKY,76.80867050803576,0.0,1,37.08533972,-85.34718444
PTH,PORT HEIDEN,PORT HEIDEN,ALASKA,76.73936421303834,0.0,1,56.95910111,-158.63336194
TAL,RALPH M CALHOUN MEML,TANANA,ALASKA,76.64773636975643,0.0,1,65.17438888,-152.10811111
C25,WAVERLY MUNI,WAVERLY,IOWA,76.6389231637319,0.0,1,42.74179555,-92.50721333
4D8,FULLER,MILFORD,IOWA,76.63830894465788,0.0,1,43.33339388,-95.1590925
5A6,WINONA-MONTGOMERY COUNTY,WINONA,MISSISSIPPI,76.63425918070979,0.0,1,33.46498777,-89.7302175
4K6,BLOOMFIELD MUNI,BLOOMFIELD,IOWA,76.63009244464956,0.0,1,40.73210555,-92.42826888
01M,TISHOMINGO COUNTY,BELMONT,MISSISSIPPI,76.62513648215669,0.0,1,34.49179138,-88.2012025
22M,PONTOTOC COUNTY,PONTOTOC,MISSISSIPPI,76.61630576307435,0.0,1,34.27555555,-89.03802777
RRQ,ROCK RAPIDS MUNI,ROCK RAPIDS,IOWA,76.58693323497491,0.0,1,43.45222111,-96.17977694
0AA1,YAKATAGA,YAKATAGA,ALASKA,76.55952111015748,0.0,1,60.08084861,-142.49549444
SVA,SAVOONGA,SAVOONGA,ALASKA,76.48953088171955,0.0,1,63.68627777,-170.49316666
MHM,MINCHUMINA,MINCHUMINA,ALASKA,76.40951078984169,0.0,1,63.88597222,-152.30183333
UIL,QUILLAYUTE,QUILLAYUTE,WASHINGTON,76.37110425003897,0.0,1,47.93658027,-124.56261583
07MT,GLASGOW INDUSTRIAL,GLASGOW,MONTANA,76.33733224327248,0.0,1,48.42109508,-106.52771588
TNT,DADE-COLLIER TRAINING AND TRANSITION,MIAMI,FLORIDA,76.30803031127978,0.0,1,25.86180555,-80.897
PSB,MID-STATE,PHILIPSBURG,PENNSYLVANIA,75.95999612190992,0.0,1,40.88439138,-78.08734166
K79,JETMORE MUNI,JETMORE,KANSAS,75.95962870434543,0.0,1,37.98444444,-99.89433333
MBA,MANOKOTAK,MANOKOTAK,ALASKA,75.92426009851806,0.0,1,58.93205555,-158.90188888
MLY,MANLEY HOT SPRINGS,MANLEY HOT SPRINGS,ALASKA,75.91393109163714,0.0,1,64.98794444,-150.64758333
51Z,MINTO AL WRIGHT,MINTO,ALASKA,75.91393109163714,0.0,1,65.14816666,-149.36858333
7F3,CADDO MILLS MUNI,CADDO MILLS,TEXAS,75.91093145884074,0.0,1,33.03622222,-96.24313888
RDV,RED DEVIL,RED DEVIL,ALASKA,75.90799252510723,0.0,1,61.78805555,-157.35025
CXF,COLDFOOT,COLDFOOT,ALASKA,75.88176913076008,0.0,1,67.25217083,-150.20390805
AFM,AMBLER,AMBLER,ALASKA,75.86578082408295,0.0,1,67.10620055,-157.85715583
PYG,PAGELAND,PAGELAND,SOUTH CAROLINA,75.85546011756196,0.0,1,34.74213888,-80.34519444
E30,BRUCE FLD,BALLINGER,TEXAS,75.84932064672103,0.0,1,31.67447222,-99.977
92F,CHATTANOOGA SKY HARBOR,CHATTANOOGA,OKLAHOMA,75.84433345946111,0.0,1,34.36886111,-98.68213888
1O1,GRANDFIELD MUNI,GRANDFIELD,OKLAHOMA,75.84433345946111,0.0,1,34.23758944,-98.74200916
F09,OLUSTEE MUNI,OLUSTEE,OKLAHOMA,75.84433345946111,0.0,1,34.51257416,-99.42953333
DEE,DEERING,DEERING,ALASKA,75.80558640356378,0.0,1,66.06911111,-162.76705555
T88,COLORADO CITY,COLORADO CITY,TEXAS,75.79982624299704,0.0,1,32.46842833,-100.92112222
RFI,RUSK COUNTY,HENDERSON,TEXAS,75.79250948920806,0.0,1,32.14172277,-94.85172805
3R2,LE GROS MEML,CROWLEY,LOUISIANA,75.74158517813771,0.0,1,30.16177777,-92.48397222
55K,OXFORD MUNI,OXFORD,KANSAS,75.7245256518816,0.0,1,37.26910833,-97.09335416
L04,HOLTVILLE,HOLTVILLE,CALIFORNIA,75.69679817646896,0.0,1,32.84494444,-115.2685
CN64,DESERT CENTER,DESERT CENTER,CALIFORNIA,75.6959997414721,0.0,1,33.74772222,-115.32525
30K,INGALLS MUNI,INGALLS,KANSAS,75.67115984423953,0.0,1,37.90686111,-100.53141666
2V5,WRAY MUNI,WRAY,COLORADO,75.63844605751198,0.0,1,40.10039694,-102.2411725
GAM,GAMBELL,GAMBELL,ALASKA,75.56900968816981,0.0,1,63.76661638,-171.73278388
S01,CONRAD,CONRAD,MONTANA,75.55696430885942,0.0,1,48.16827777,-111.97644444
3W7,GRAND COULEE DAM,ELECTRIC CITY,WASHINGTON,75.55309419769385,0.0,1,47.92205555,-119.083
7S6,WHITE SULPHUR SPRINGS,WHITE SULPHUR SPRINGS,MONTANA,75.53428706476893,0.0,1,46.49557861,-110.9119175
SOV,SELDOVIA,SELDOVIA,ALASKA,75.52940969599057,0.0,1,59.44390555,-151.70504166
AQY,GIRDWOOD,GIRDWOOD,ALASKA,75.52940969599057,0.0,1,60.96902222,-149.11934583
LHB,HEARNE MUNI,HEARNE,TEXAS,75.52606035428607,0.0,1,30.87208333,-96.62219444
O33,SAMOA FLD,EUREKA,CALIFORNIA,75.52347168576904,0.0,1,40.78086111,-124.21227777
F99,HOLDENVILLE MUNI,HOLDENVILLE,OKLAHOMA,75.52260666196645,0.0,1,35.08586111,-96.41666666
ELI,ELIM,ELIM,ALASKA,75.51562413292706,0.0,1,64.61497222,-162.27052777
3U3,BOWMAN FLD,ANACONDA,MONTANA,75.51416712861165,0.0,1,46.1534145,-112.86773455
0V4,BROOKNEAL/CAMPBELL COUNTY,BROOKNEAL,VIRGINIA,75.4998741218477,0.0,1,37.14172222,-79.01638888
77G,MARLETTE TOWNSHIP,MARLETTE,MICHIGAN,75.49709102119557,0.0,1,43.31183305,-83.09092027
EZS,SHAWANO MUNI,SHAWANO,WISCONSIN,75.48769931034963,0.0,1,44.78730583,-88.5600125
20R,CRYSTAL CITY MUNI,CRYSTAL CITY,TEXAS,75.47501573912307,0.0,1,28.69755555,-99.81766666
CHT,CHILLICOTHE MUNI,CHILLICOTHE,MISSOURI,75.46458870540911,0.0,1,39.78201544,-93.49623608
OBU,KOBUK,KOBUK,ALASKA,75.46263482165206,0.0,1,66.91233333,-156.89733333
L77,CHIRIACO SUMMIT,CHIRIACO SUMMIT,CALIFORNIA,75.45970269292195,0.0,1,33.66481111,-115.71041388
TNI,FRANCISCO MANGLONA BORJA/TINIAN INTL,TINIAN ISLAND,N MARIANA ISLANDS,75.45130874043822,0.0,1,14.99923055,145.61935083
FOT,ROHNERVILLE,FORTUNA,CALIFORNIA,75.44822257251295,0.0,1,40.55394138,-124.13265555
KLG,KALSKAG,KALSKAG,ALASKA,75.43515976719456,0.0,1,61.53597222,-160.34558333
S34,PLAINS,PLAINS,MONTANA,75.42684177569556,0.0,1,47.47355583,-114.90708138
2E7,MC LEAN/GRAY COUNTY,MC LEAN,TEXAS,75.42388067965098,0.0,1,35.24686111,-100.54680555
F72,FRANKLIN FLD,FRANKLIN,CALIFORNIA,75.42057459537342,0.0,1,38.304,-121.42930555
5B1,JOHN H BOYLAN STATE (ISLAND POND),ISLAND POND,VERMONT,75.41419334056715,0.0,1,44.78997222,-71.82641666
ANY,ANTHONY MUNI,ANTHONY,KANSAS,75.4031178913535,0.0,1,37.15988888,-98.07952777
EHA,ELKHART-MORTON COUNTY,ELKHART,KANSAS,75.4031178913535,0.0,1,37.00078222,-101.88002777
MYZ,MARYSVILLE MUNI,MARYSVILLE,KANSAS,75.39533041105008,0.0,1,39.85642916,-96.6307125
NUL,NULATO,NULATO,ALASKA,75.39505625475101,0.0,1,64.72933333,-158.07422222
KEK,EKWOK,EKWOK,ALASKA,75.39505625475101,0.0,1,59.35683888,-157.47113944
K44,BEAVER MUNI,BEAVER,OKLAHOMA,75.38870093631535,0.0,1,36.7979485,-100.52691375
PEV,PERRYVILLE,PERRYVILLE,ALASKA,75.38720925821741,0.0,1,55.90672361,-159.16082916
KVC,KING COVE,KING COVE,ALASKA,75.38720925821741,0.0,1,55.11638416,-162.26653555
SHX,SHAGELUK,SHAGELUK,ALASKA,75.38720925821741,0.0,1,62.69230555,-159.56922222
RSH,RUSSIAN MISSION,RUSSIAN MISSION,ALASKA,75.38720925821741,0.0,1,61.77489027,-161.31939872
GAB,GABBS,GABBS,NEVADA,75.38651381730938,0.0,1,38.92226388,-117.95856111
Y55,CRANDON/STEVE CONWAY MUNI,CRANDON,WISCONSIN,75.36110623038775,0.0,1,45.52264833,-88.9284373
48S,HARLEM,HARLEM,MONTANA,75.33590977592655,0.0,1,48.56629455,-108.77403619
GRO,BENJAMIN TAISACAN MANGLONA INTL,ROTA ISLAND,N MARIANA ISLANDS,75.3212621329146,0.0,1,14.17434944,145.24111916
5I6,GALVESTON,GALVESTON,INDIANA,75.31225381970806,0.0,1,40.584205,-86.25694027
Y27,STANDING ROCK,FORT YATES,NORTH DAKOTA,75.28952693939667,0.0,1,46.0668825,-100.63277944
JDN,JORDAN,JORDAN,MONTANA,75.28668491386239,0.0,1,47.32875,-106.95269444
F21,MEMPHIS MUNI,MEMPHIS,TEXAS,75.2837238178178,0.0,1,34.73958944,-100.52970083
LOL,DERBY FLD,LOVELOCK,NEVADA,75.26607539699663,0.0,1,40.06646747,-118.56508611
1O8,TIPTON MUNI,TIPTON,OKLAHOMA,75.24854407448217,0.0,1,34.458625,-99.17133333
F32,HEALDTON MUNI,HEALDTON,OKLAHOMA,75.24854407448217,0.0,1,34.25489444,-97.47292777
SKW,SKWENTNA,SKWENTNA,ALASKA,75.21021214799116,0.0,1,61.9661125,-151.19539027
TCT,TAKOTNA,TAKOTNA,ALASKA,75.21021214799116,0.0,1,62.99294444,-156.02972222
44U,SALINA-GUNNISON,SALINA,UTAH,75.20352234208681,0.0,1,39.02912833,-111.83825833
ABO,ANTONIO/NERY/JUARBE POL,ARECIBO,PUERTO RICO,75.20312790155889,0.0,1,18.45091666,-66.67544444
L90,OCOTILLO,OCOTILLO WELLS,CALIFORNIA,75.19274238127967,0.0,1,33.14781744,-116.13153358
32S,STEVENSVILLE,STEVENSVILLE,MONTANA,75.19235779688606,0.0,1,46.52511111,-114.05280555
L73,POSO-KERN COUNTY,FAMOSO,CALIFORNIA,75.18920128010774,0.0,1,35.59638888,-119.12827777
1Q4,NEW JERUSALEM,TRACY,CALIFORNIA,75.18746687534872,0.0,1,37.67777777,-121.30119444
RED,RED LODGE,RED LODGE,MONTANA,75.18390761025346,0.0,1,45.18483333,-109.25770972
3S4,ILLINOIS VALLEY,CAVE JUNCTION,OREGON,75.18293742687665,0.0,1,42.1036,-123.68241666
MAZ,EUGENIO MARIA DE HOSTOS,MAYAGUEZ,PUERTO RICO,75.14582865352574,0.0,1,18.25568611,-67.14847166
E19,GRUVER MUNI,GRUVER,TEXAS,75.14124442478743,0.0,1,36.23372611,-101.43218944
09R,TYLER COUNTY,WOODVILLE,TEXAS,75.14124442478743,0.0,1,30.77520055,-94.4585325
5F1,POST-GARZA COUNTY MUNI,POST,TEXAS,75.14124442478743,0.0,1,33.20330555,-101.33822222
D64,WESTHOPE MUNI,WESTHOPE,NORTH DAKOTA,75.13740782101176,0.0,1,48.91307638,-101.03372222
W20,MOSES LAKE MUNI,MOSES LAKE,WASHINGTON,75.13729415263883,0.0,1,47.14200416,-119.23788194
CFT,GREENLEE COUNTY,CLIFTON/MORENCI,ARIZONA,75.12673808415872,0.0,1,32.95703863,-109.2111623
7K5,KENMARE MUNI,KENMARE,NORTH DAKOTA,75.12595238785254,0.0,1,48.6676125,-102.04800277
M45,ALPINE COUNTY,MARKLEEVILLE,CALIFORNIA,75.1240685328417,0.0,1,38.73475,-119.76705555
BTY,BEATTY,BEATTY,NEVADA,75.11506626245327,0.0,1,36.86113305,-116.78639944
WLW,WILLOWS/GLENN COUNTY,WILLOWS,CALIFORNIA,75.11432281719172,0.0,1,39.51575588,-122.21727544
F68,ANADARKO MUNI,ANADARKO,OKLAHOMA,75.10688349533977,0.0,1,35.05219444,-98.26405555
4K0,PEDRO BAY,PEDRO BAY,ALASKA,75.09591505651805,0.0,1,59.79694444,-154.12997222
5NN,NONDALTON,NONDALTON,ALASKA,75.06803549754665,0.0,1,59.98023027,-154.83917472
WBB,STEBBINS,STEBBINS,ALASKA,75.0667671785795,0.0,1,63.51597222,-162.278
HWQ,WHEATLAND COUNTY AT HARLOWTON,HARLOWTON,MONTANA,75.06344456644685,0.0,1,46.44861111,-109.85277777
PJY,PINCKNEYVILLE/DU QUOIN,PINCKNEYVILLE,ILLINOIS,75.06319724675839,0.0,1,37.97788416,-89.36044888
ATA,HALL-MILLER MUNI,ATLANTA,TEXAS,75.0628190431173,0.0,1,33.10252777,-94.19502777
CLP,CLARKS POINT,CLARKS POINT,ALASKA,75.06209693101674,0.0,1,58.83369444,-158.52938888
95F,CLEVELAND MUNI,CLEVELAND,OKLAHOMA,75.04958424730663,0.0,1,36.28416666,-96.46333333
F10,HENRYETTA MUNI,HENRYETTA,OKLAHOMA,75.02509145195202,0.0,1,35.40687972,-96.01583277
F36,CORDELL MUNI,CORDELL,OKLAHOMA,75.02509145195202,0.0,1,35.29629925,-98.96771563
6OK6,EARL HENRY,BLACKWELL,OKLAHOMA,75.02509145195202,0.0,1,36.79586527,-97.31698805
SCM,SCAMMON BAY,SCAMMON BAY,ALASKA,75.01516066097037,0.0,1,61.84454166,-165.57375
VIQ,NEILLSVILLE MUNI,NEILLSVILLE,WISCONSIN,75.01481804237748,0.0,1,44.55811111,-90.51225
P14,HOLBROOK MUNI,HOLBROOK,ARIZONA,75.00921665515793,0.0,1,34.94072222,-110.1385
ONM,SOCORRO MUNI,SOCORRO,NEW MEXICO,75.00536979383315,0.0,1,34.02247222,-106.90313888
1I8,CONVERSE,CONVERSE,INDIANA,74.98776098049134,0.0,1,40.57320277,-85.89959722
06U,JACKPOT/HAYDEN FLD,JACKPOT,NEVADA,74.97749569963172,0.0,1,41.97583083,-114.65801555
1V0,NAVAJO LAKE,NAVAJO DAM,NEW MEXICO,74.96720828630163,0.0,1,36.80829055,-107.65261416
SFY,TRI-TOWNSHIP,SAVANNA,ILLINOIS,74.95640813970816,0.0,1,42.04583333,-90.10794444
I06,CITY OF TULIA/SWISHER COUNTY MUNI,TULIA,TEXAS,74.95323985953797,0.0,1,34.56682472,-101.78146111
15F,HASKELL MUNI,HASKELL,TEXAS,74.95323985953797,0.0,1,33.19148686,-99.71787263
P04,BISBEE MUNI,BISBEE,ARIZONA,74.94052824558838,0.0,1,31.36399027,-109.88312861
CJX,CROOKED CREEK,CROOKED CREEK,ALASKA,74.93335646140424,0.0,1,61.87111805,-158.13795638
U48,COXS WELL,ATOMIC CITY,IDAHO,74.91640118293631,0.0,1,43.21775,-113.22755555
A32,BUTTE VALLEY,DORRIS,CALIFORNIA,74.9161738816456,0.0,1,41.88725,-121.97558333
S31,LOPEZ ISLAND,LOPEZ,WASHINGTON,74.91179986947353,0.0,1,48.48391666,-122.93766666
GRN,GORDON MUNI,GORDON,NEBRASKA,74.90836628471132,0.0,1,42.80597805,-102.17525111
0R7,THE RED RIVER,COUSHATTA,LOUISIANA,74.86310460972325,0.0,1,31.99027777,-93.30761111
T05,CHARLES R JOHNSON,PORT MANSFIELD,TEXAS,74.84785952934111,0.0,1,26.56015555,-97.43925
I16,KEE FLD,PINEVILLE,WEST VIRGINIA,74.8451762480172,0.0,1,37.60044444,-81.55927777
S64,STANFORD/BIGGERSTAFF FLD,STANFORD,MONTANA,74.84080047985181,0.0,1,47.14686305,-110.23004555
L62,ELK HILLS-BUTTONWILLOW,BUTTONWILLOW,CALIFORNIA,74.81761443339005,0.0,1,35.35344444,-119.47972222
1K2,LINDSAY MUNI,LINDSAY,OKLAHOMA,74.79931785171208,0.0,1,34.84945138,-97.58529166
N68,FRANKLIN COUNTY RGNL,CHAMBERSBURG,PENNSYLVANIA,74.78888320104322,0.0,1,39.97296138,-77.64325611
VQS,ANTONIO RIVERA RODRIGUEZ,ISLA DE VIEQUES,PUERTO RICO,74.78054058694971,0.0,1,18.13481111,-65.49361666
3TR,JERRY TYLER MEML,NILES,MICHIGAN,74.77807784190885,0.0,1,41.83588888,-86.22516666
FKS,FRANKFORT DOW MEML FLD,FRANKFORT,MICHIGAN,74.77807784190885,0.0,1,44.62520166,-86.20085527
F88,JONESBORO,JONESBORO,LOUISIANA,74.77569478970307,0.0,1,32.202,-92.73294444
4R5,MAJOR GILBERT FLD,LA POINTE,WISCONSIN,74.76891830251573,0.0,1,46.78866666,-90.75872222
50D,IRON COUNTY,CRYSTAL FALLS,MICHIGAN,74.76125125506525,0.0,1,46.00907966,-88.27402563
6E5,WILDER,DESMET,SOUTH DAKOTA,74.74978170876625,0.0,1,44.4330475,-97.55816
12K,SUPERIOR MUNI,SUPERIOR,NEBRASKA,74.74459622512951,0.0,1,40.04619986,-98.06125544
E63,GILA BEND MUNI,GILA BEND,ARIZONA,74.74173796367103,0.0,1,32.96016944,-112.6736375
K19,ALBANY MUNI,ALBANY,MISSOURI,74.7364033074387,0.0,1,40.26219444,-94.33902777
T55,DIMMITT MUNI,DIMMITT,TEXAS,74.73153124462573,0.0,1,34.56673555,-102.32269472
TGI,TANGIER ISLAND,TANGIER,VIRGINIA,74.71954918125132,0.0,1,37.82586527,-75.9976625
EAA,EAGLE,EAGLE,ALASKA,74.71795256131472,0.0,1,64.77808333,-141.14961111
OOK,TOKSOOK BAY,TOKSOOK BAY,ALASKA,74.71404651615097,0.0,1,60.54133638,-165.08718388
WMO,WHITE MOUNTAIN,WHITE MOUNTAIN,ALASKA,74.71404651615097,0.0,1,64.68919444,-163.41275
H96,BENTON MUNI,BENTON,ILLINOIS,74.71069969846076,0.0,1,38.0085,-88.93444444
4F2,PANOLA COUNTY-SHARPE FLD,CARTHAGE,TEXAS,74.7056828788966,0.0,1,32.17608333,-94.29880555
BFW,SILVER BAY MUNI,SILVER BAY,MINNESOTA,74.68349524973274,0.0,1,47.24902777,-91.41558333
O53,MEDFORD MUNI,MEDFORD,OKLAHOMA,74.6829895669967,0.0,1,36.79058416,-97.74899722
1S5,SUNNYSIDE MUNI,SUNNYSIDE,WASHINGTON,74.68163115978071,0.0,1,46.32707222,-119.97036222
FSP,NIKOLAI,NIKOLAI,ALASKA,74.67574051309978,0.0,1,63.01855888,-154.35843805
F62,HAYFORK,HAYFORK,CALIFORNIA,74.66874011237893,0.0,1,40.547,-123.17963888
CSB,CAMBRIDGE MUNI,CAMBRIDGE,NEBRASKA,74.66036862988746,0.0,1,40.30658194,-100.16207222
F30,SULPHUR MUNI,SULPHUR,OKLAHOMA,74.65714120126756,0.0,1,34.52704444,-96.9901875
IML,IMPERIAL MUNI,IMPERIAL,NEBRASKA,74.65062291423747,0.0,1,40.51032622,-101.62014602
0V3,PIONEER VILLAGE FLD,MINDEN,NEBRASKA,74.65062291423747,0.0,1,40.51491666,-98.94563888
P52,COTTONWOOD,COTTONWOOD,ARIZONA,74.65062291423747,0.0,1,34.73005611,-112.03513722
D86,SEQUOIA FLD,VISALIA,CALIFORNIA,74.64972868409704,0.0,1,36.44791666,-119.31872222
S45,SILETZ BAY STATE,GLENEDEN BEACH,OREGON,74.63753031185881,0.0,1,44.87677777,-124.02855555
HOE,HOMERVILLE,HOMERVILLE,GEORGIA,74.6230827474255,0.0,1,31.05688888,-82.77527777
E36,GEORGETOWN,GEORGETOWN,CALIFORNIA,74.62166645135798,0.0,1,38.92111111,-120.86480555
ECU,EDWARDS COUNTY,ROCKSPRINGS,TEXAS,74.61888496479737,0.0,1,29.94691958,-100.17385466
9V6,MARTIN MUNI,MARTIN,SOUTH DAKOTA,74.60812112962385,0.0,1,43.16564944,-101.71269805
3O5,WALTERS MUNI,WALTERS,OKLAHOMA,74.60405377192859,0.0,1,34.37258444,-98.40588583
17K,BOISE CITY,BOISE CITY,OKLAHOMA,74.60405377192859,0.0,1,36.77430555,-102.51044444
47V,CURTIS MUNI,CURTIS,NEBRASKA,74.59659694084975,0.0,1,40.63875,-100.47341666
3A9,ARLINGTON MUNI,ARLINGTON,SOUTH DAKOTA,74.59529359422692,0.0,1,44.39382916,-97.12294769
8U6,TERRY,TERRY,MONTANA,74.5943593477183,0.0,1,46.77713888,-105.31311111
0B8,ELIZABETH FLD,FISHERS ISLAND,NEW YORK,74.58971933609992,0.0,1,41.25213888,-72.03163888
S83,SHOSHONE COUNTY,KELLOGG,IDAHO,74.5770944497581,0.0,1,47.54726111,-116.18906388
H66,NOWATA MUNI,NOWATA,OKLAHOMA,74.57034328716834,0.0,1,36.72092222,-95.62525583
RPB,BELLEVILLE MUNI,BELLEVILLE,KANSAS,74.54906342920165,0.0,1,39.81775972,-97.65958638
7D3,BALDWIN MUNI,BALDWIN,MICHIGAN,74.53427037931826,0.0,1,43.87553563,-85.8420825
5HO,HOPE,HOPE,ALASKA,74.5269556166622,0.0,1,60.90725277,-149.62281111
ODX,EVELYN SHARP FLD,ORD,NEBRASKA,74.52534172758565,0.0,1,41.62369444,-98.95186111
GTE,GOTHENBURG MUNI,GOTHENBURG,NEBRASKA,74.5155625201905,0.0,1,40.92548333,-100.14656944
6A6,KIMBALL MUNI,KIMBALL,SOUTH DAKOTA,74.50782955605317,0.0,1,43.75544722,-98.97880138
2E6,GROTON MUNI,GROTON,SOUTH DAKOTA,74.50782955605317,0.0,1,45.53373611,-98.09392777
M79,JOHN H HOOKS JR MEML,RAYVILLE,LOUISIANA,74.5039900432051,0.0,1,32.48541972,-91.77106638
S97,ANDERSON FLD,BREWSTER,WASHINGTON,74.47870840138313,0.0,1,48.10472861,-119.71991555
ORS,ORCAS ISLAND,EASTSOUND,WASHINGTON,74.47870840138313,0.0,1,48.70833722,-122.91059527
9D0,HIGHMORE MUNI,HIGHMORE,SOUTH DAKOTA,74.47296623470879,0.0,1,44.54076713,-99.45101227
1R1,JENA,JENA,LOUISIANA,74.46542133298621,0.0,1,31.66881472,-92.15759555
53A,DR C P SAVAGE SR,MONTEZUMA,GEORGIA,74.45894308598196,0.0,1,32.30306333,-84.00746805
4J1,BRANTLEY COUNTY,NAHUNTA,GEORGIA,74.45894308598196,0.0,1,31.20606888,-81.90598611
K94,RUSH COUNTY,LA CROSSE,KANSAS,74.45011631662823,0.0,1,38.54681944,-99.28975
L78,JACUMBA,JACUMBA,CALIFORNIA,74.42887630114093,0.0,1,32.61588055,-116.16553888
MCD,MACKINAC ISLAND,MACKINAC ISLAND,MICHIGAN,74.4190755274465,0.0,1,45.86498333,-84.63709444
16S,MYRTLE CREEK MUNI,MYRTLE CREEK,OREGON,74.39385945687137,0.0,1,42.99726111,-123.31534722
9F1,VALLEY MILLS MUNI,VALLEY MILLS,TEXAS,74.38213928339245,0.0,1,31.62099583,-97.42945861
ETH,WHEATON MUNI,WHEATON,MINNESOTA,74.34290231344312,0.0,1,45.78050608,-96.54379797
9S9,LEXINGTON,LEXINGTON,OREGON,74.33115042611581,0.0,1,45.45413888,-119.69027777
6S6,POWERS,POWERS,OREGON,74.33115042611581,0.0,1,42.86936111,-124.05902777
86F,CARNEGIE MUNI,CARNEGIE,OKLAHOMA,74.3260514022415,0.0,1,35.12365466,-98.57522319
1O6,DUNSMUIR MUNI-MOTT,DUNSMUIR,CALIFORNIA,74.31254801642555,0.0,1,41.26291944,-122.2720375
O59,CEDARVILLE,CEDARVILLE,CALIFORNIA,74.31254801642555,0.0,1,41.55361111,-120.16561111
9F0,DUBLIN MUNI,DUBLIN,TEXAS,74.31051546271568,0.0,1,32.06819916,-98.32532083
37F,MUNDAY MUNI,MUNDAY,TEXAS,74.31051546271568,0.0,1,33.46872222,-99.58622222
LBR,CLARKSVILLE/RED RIVER CTY-J D TRISSELL FLD,CLARKSVILLE,TEXAS,74.31051546271568,0.0,1,33.59264027,-95.06414722
AKI,AKIAK,AKIAK,ALASKA,74.29550055800165,0.0,1,60.90289722,-161.23058333
T71,CUERO MUNI,CUERO,TEXAS,74.28896608306671,0.0,1,29.08358805,-97.26693416
48U,GTR GREEN RIVER INTERGALACTIC SPACEPORT,GREEN RIVER,WYOMING,74.27106872744369,0.0,1,41.45795555,-109.49019861
1K5,WAYNOKA MUNI,WAYNOKA,OKLAHOMA,74.26788581695332,0.0,1,36.5713,-98.85466388
BFK,BUFFALO MUNI,BUFFALO,OKLAHOMA,74.26788581695332,0.0,1,36.86330138,-99.61873055
3I2,MASON COUNTY,POINT PLEASANT,WEST VIRGINIA,74.25554110108034,0.0,1,38.91463472,-82.09857888
1Y5,NEW HAMPTON MUNI,NEW HAMPTON,IOWA,74.24061682221956,0.0,1,43.08719583,-92.3432325
0F9,TISHOMINGO AIRPARK,TISHOMINGO,OKLAHOMA,74.23580929180666,0.0,1,34.1985,-96.6745
0R4,CONCORDIA PARISH,VIDALIA,LOUISIANA,74.22598767351802,0.0,1,31.562,-91.50647222
U06,COKEVILLE MUNI,COKEVILLE,WYOMING,74.21164566927092,0.0,1,42.04577083,-110.96602055
TEL,PERRY COUNTY MUNI,TELL CITY,INDIANA,74.21046788245941,0.0,1,38.01886111,-86.69241666
PYN,PIEDMONT MUNI,PIEDMONT,MISSOURI,74.19172157360669,0.0,1,37.1261375,-90.71352861
T24,PINELAND MUNI,PINELAND,TEXAS,74.1885532934365,0.0,1,31.23352194,-93.98185555
LZZ,LAMPASAS,LAMPASAS,TEXAS,74.1885532934365,0.0,1,31.10619444,-98.19591666
9U0,TURNER,TURNER,MONTANA,74.18265525955563,0.0,1,48.85032027,-108.40374777
NIN,NINILCHIK,NINILCHIK,ALASKA,74.17789937313795,0.0,1,60.02023416,-151.58941861
K43,UNIONVILLE MUNI,UNIONVILLE,MISSOURI,74.17451533460272,0.0,1,40.54022222,-93.02552777
23R,DEVINE MUNI,DEVINE,TEXAS,74.17167446503201,0.0,1,29.13838888,-98.94188888
21F,JACKSBORO MUNI,JACKSBORO,TEXAS,74.17167446503201,0.0,1,33.22786111,-98.14644444
K01,FARINGTON FLD,AUBURN,NEBRASKA,74.12494957757748,0.0,1,40.38666666,-95.788
1U1,MOOSE CREEK /USFS/,MOOSE CREEK RANGER STATION,IDAHO,74.09433049574268,0.0,1,46.12631944,-114.92170277
O43,YERINGTON MUNI,YERINGTON,NEVADA,74.09302746509216,0.0,1,39.00540194,-119.15654222
BUB,CRAM FLD,BURWELL,NEBRASKA,74.08789951974173,0.0,1,41.77757666,-99.15021166
C91,DOWAGIAC MUNI,DOWAGIAC,MICHIGAN,74.08061764471998,0.0,1,41.99291666,-86.12827777
F86,CALDWELL PARISH,COLUMBIA,LOUISIANA,74.07841106471322,0.0,1,32.12216666,-92.0545
M60,WOODRUFF COUNTY,AUGUSTA,ARKANSAS,74.05331212606485,0.0,1,35.27190555,-91.27033055
4O5,CHEROKEE MUNI,CHEROKEE,OKLAHOMA,74.0282384798996,0.0,1,36.78830833,-98.35843055
HNM,HANA,HANA,HAWAII,74.01508516256624,0.0,1,20.79563716,-156.01443788
40D,THREE LAKES MUNI,THREE LAKES,WISCONSIN,74.00971025031559,0.0,1,45.79001805,-89.12128888
K62,GENE SNYDER,FALMOUTH,KENTUCKY,74.00926355149785,0.0,1,38.70406388,-84.39182666
9Y0,BOWSTRING,BOWSTRING,MINNESOTA,74.00516480196845,0.0,1,47.55824444,-93.87006388
75J,TURNER COUNTY,ASHBURN,GEORGIA,74.00313070920048,0.0,1,31.68761111,-83.63294444
0M8,BYERLEY,LAKE PROVIDENCE,LOUISIANA,73.97816433045804,0.0,1,32.82587916,-91.187665
0O4,CORNING MUNI,CORNING,CALIFORNIA,73.97765252840365,0.0,1,39.94610805,-122.17111666
M05,CARUTHERSVILLE MEML,CARUTHERSVILLE,MISSOURI,73.9602200723248,0.0,1,36.16912583,-89.67648083
60F,SEYMOUR MUNI,SEYMOUR,TEXAS,73.95054721687869,0.0,1,33.64851666,-99.26130555
40U,MANILA,MANILA,UTAH,73.94651696490908,0.0,1,40.98639444,-109.67852694
MUL,SPENCE,MOULTRIE,GEORGIA,73.9317201509421,0.0,1,31.13768666,-83.70405972
PGM,PORT GRAHAM,PORT GRAHAM,ALASKA,73.91768318569878,0.0,1,59.348475,-151.83032222
1F4,MADILL MUNI,MADILL,OKLAHOMA,73.89162656762083,0.0,1,34.14040194,-96.81203222
7Q7,WHITE RIVER MUNI,WHITE RIVER,SOUTH DAKOTA,73.86132405638679,0.0,1,43.56166416,-100.74180555
BID,BLOCK ISLAND STATE,BLOCK ISLAND,RHODE ISLAND,73.85987069463368,0.0,1,41.16811111,-71.57783333
27W,LAKE WENATCHEE STATE,LEAVENWORTH,WASHINGTON,73.84950212065252,0.0,1,47.81941361,-120.71989416
8F6,MURDO MUNI,MURDO,SOUTH DAKOTA,73.8488576273146,0.0,1,43.85213888,-100.71280555
36S,HAPPY CAMP,HAPPY CAMP,CALIFORNIA,73.84609266517288,0.0,1,41.79067944,-123.38894444
80T,QUINCY MUNI,QUINCY,WASHINGTON,73.84187608424942,0.0,1,47.21161111,-119.83983333
S28,INTL PEACE GARDEN,DUNSEITH,NORTH DAKOTA,73.83408437262263,0.0,1,48.99730555,-100.04369444
5V8,KADOKA MUNI,KADOKA,SOUTH DAKOTA,73.82403208620418,0.0,1,43.83332611,-101.49708805
64V,WALLACE MUNI,WALLACE,NEBRASKA,73.82209090889513,0.0,1,40.83222444,-101.16404472
S68,OROFINO MUNI,OROFINO,IDAHO,73.81158374009368,0.0,1,46.49202111,-116.27539944
U05,RIDDICK FLD,PHILIPSBURG,MONTANA,73.76005725467482,0.0,1,46.31735308,-113.30515061
CJJ,ELLEN CHURCH FLD,CRESCO,IOWA,73.74749715118563,0.0,1,43.36530138,-92.13308305
MUE,WAIMEA-KOHALA,KAMUELA,HAWAII,73.71890880731667,0.0,1,20.00132694,-155.66810722
0NM0,COLUMBUS MUNI,COLUMBUS,NEW MEXICO,73.69851209250152,0.0,1,31.82371138,-107.62696722
UPP,UPOLU,HAWI,HAWAII,73.69737678950614,0.0,1,20.26519444,-155.85994444
5P2,MC LAUGHLIN MUNI,MC LAUGHLIN,SOUTH DAKOTA,73.69360565581702,0.0,1,45.7968175,-100.78425777
MS50,CLAY,MONTICELLO,MISSISSIPPI,73.6901368123708,0.0,1,31.57933555,-90.11119666
06M,EUPORA,EUPORA,MISSISSIPPI,73.68909205460709,0.0,1,33.53483333,-89.31311111
SYV,SYLVESTER,SYLVESTER,GEORGIA,73.68537664958494,0.0,1,31.55715472,-83.89403638
M74,BALD KNOB MUNI,BALD KNOB,ARKANSAS,73.64754131575961,0.0,1,35.29947222,-91.55769444
4F7,KIZER FLD,PRESCOTT,ARKANSAS,73.64692709668559,0.0,1,33.80388888,-93.36216666
6J2,ST GEORGE,ST GEORGE,SOUTH CAROLINA,73.6439014170959,0.0,1,33.1955,-80.50847222
M72,NEW ALBANY/UNION COUNTY,NEW ALBANY,MISSISSIPPI,73.62071045627638,0.0,1,34.54900972,-89.02443611
20M,MACON MUNI,MACON,MISSISSIPPI,73.62071045627638,0.0,1,33.13372222,-88.536
O60,CLOVERDALE MUNI,CLOVERDALE,CALIFORNIA,73.61198439179273,0.0,1,38.77627777,-122.99261111
L52,OCEANO COUNTY,OCEANO,CALIFORNIA,73.61198439179273,0.0,1,35.10152916,-120.62231527
H19,BOWLING GREEN MUNI,BOWLING GREEN,MISSOURI,73.58143738787582,0.0,1,39.37069638,-91.22027944
56S,SEASIDE MUNI,SEASIDE,OREGON,73.56914270144422,0.0,1,46.01499583,-123.9076575
7A5,ROANOKE MUNI ENLOE,ROANOKE,ALABAMA,73.5488983889319,0.0,1,33.12967777,-85.37221527
4W0,BANDERA STATE,BANDERA,WASHINGTON,73.5385806082961,0.0,1,47.39536888,-121.53647194
XVG,LONGVILLE MUNI,LONGVILLE,MINNESOTA,73.53564349011442,0.0,1,46.9899075,-94.20363194
34R,HALLETTSVILLE MUNI,HALLETTSVILLE,TEXAS,73.53251391014011,0.0,1,29.38995833,-96.95605972
65J,WRENS MEML,WRENS,GEORGIA,73.52248570503879,0.0,1,33.22277777,-82.3845
O24,LEE VINING,LEE VINING,CALIFORNIA,73.48965860309143,0.0,1,37.95773863,-119.10581116
5U8,GERALDINE,GERALDINE,MONTANA,73.48686423162398,0.0,1,47.596455,-110.26591333
MDY,HENDERSON FLD,MIDWAY ATOLL,MIDWAY ISLANDS,73.48161358001066,0.0,1,28.20148388,-177.38130888
O57,BRYANT FLD,BRIDGEPORT,CALIFORNIA,73.47705152977204,0.0,1,38.26465363,-119.22273111
O16,GARBERVILLE,GARBERVILLE,CALIFORNIA,73.42425489379859,0.0,1,40.08543972,-123.81414694
3O1,GUSTINE,GUSTINE,CALIFORNIA,73.42425489379859,0.0,1,37.26055555,-120.96425
19M,C A MOORE,LEXINGTON,MISSISSIPPI,73.38914422142321,0.0,1,33.12546111,-90.02555694
2M4,G V MONTGOMERY,FOREST,MISSISSIPPI,73.38318236762694,0.0,1,32.35494444,-89.48816666
6J6,EDGEFIELD COUNTY,TRENTON,SOUTH CAROLINA,73.37453535793504,0.0,1,33.73686111,-81.81875
S19,MC CORMICK COUNTY,MC CORMICK,SOUTH CAROLINA,73.36206892886285,0.0,1,33.90809694,-82.26693
20A,ROBBINS FLD,ONEONTA,ALABAMA,73.36203842729833,0.0,1,33.97127777,-86.38038888
6M8,MARKED TREE MUNI,MARKED TREE,ARKANSAS,73.33400335263505,0.0,1,35.53309027,-90.40008888
8D8,LAKE ANDES MUNI,LAKE ANDES,SOUTH DAKOTA,73.31493260919281,0.0,1,43.14804888,-98.54035916
LUP,KALAUPAPA,KALAUPAPA,HAWAII,73.30578823269082,0.0,1,21.21104027,-156.97359722
GEO,BROWN COUNTY,GEORGETOWN,OHIO,73.29646917339045,0.0,1,38.88194558,-83.88273666
68A,WRANGELL,WRANGELL,ALASKA,73.26402823363938,0.0,1,56.466325,-132.38001805
94Z,NOME CITY FLD,NOME,ALASKA,73.26402823363938,0.0,1,64.51142227,-165.39023022
9C0,PENINSULA POINT PULLOUT,KETCHIKAN,ALASKA,73.26402823363938,0.0,1,55.38465055,-131.73835222
OUL,NELSON LAGOON,NELSON LAGOON,ALASKA,73.26402823363938,0.0,1,56.00753611,-161.16036722
7M5,OZARK/FRANKLIN COUNTY,OZARK,ARKANSAS,73.2635154202174,0.0,1,35.51069583,-93.8393075
DCK,DAHL CREEK,DAHL CREEK,ALASKA,73.25390677587735,0.0,1,66.94256141,-156.89136863
KEB,NANWALEK,NANWALEK,ALASKA,73.24961008214959,0.0,1,59.35214833,-151.92515583
4V6,HAY SPRINGS MUNI,HAY SPRINGS,NEBRASKA,73.24304047717452,0.0,1,42.68191805,-102.7007375
FFA,FIRST FLIGHT,KILL DEVIL HILLS,NORTH CAROLINA,73.23513200359325,0.0,1,36.01758333,-75.67158333
25J,LOWER CHATTAHOOCHEE RGNL,CUTHBERT,GEORGIA,73.18211452159309,0.0,1,31.70186727,-84.82700672
4C8,ALBIA MUNI,ALBIA,IOWA,73.16568129679737,0.0,1,40.99627777,-92.76569444
0F7,FOUNTAINHEAD LODGE AIRPARK,EUFAULA,OKLAHOMA,73.16167180953195,0.0,1,35.38866666,-95.60027777
9M4,ACKERMAN CHOCTAW COUNTY,ACKERMAN,MISSISSIPPI,73.16029281289771,0.0,1,33.3034575,-89.22840027
4S6,TIETON STATE,RIMROCK,WASHINGTON,73.15170236148168,0.0,1,46.63755138,-121.12397888
4F8,WILSON,STEPHENS,ARKANSAS,73.11264041031443,0.0,1,33.44319444,-93.05430555
15M,SEGARS FLD,IUKA,MISSISSIPPI,73.07908758569869,0.0,1,34.77333333,-88.16608333
KSM,ST MARY'S,ST MARY'S,ALASKA,73.05886465327511,0.0,1,62.06083083,-163.30183638
CPX,BENJAMIN RIVERA NORIEGA,ISLA DE CULEBRA,PUERTO RICO,73.02503663512718,0.0,1,18.31294888,-65.30388027
CDV,MERLE K (MUDHOLE) SMITH,CORDOVA,ALASKA,73.01595908848036,0.0,1,60.49163972,-145.47755777
9A9,SHIFLET FLD,MARION,NORTH CAROLINA,73.00682310092907,0.0,1,35.72067972,-82.00983083
M37,RULEVILLE-DREW,DREW,MISSISSIPPI,72.97464631778132,0.0,1,33.77639166,-90.52500833
M59,RICHTON-PERRY COUNTY,RICHTON,MISSISSIPPI,72.97360156001761,0.0,1,31.31703194,-88.9348625
5Z5,KANTISHNA,KANTISHNA,ALASKA,72.91357138817285,0.0,1,63.54098611,-150.99507777
SRV,STONY RIVER 2,STONY RIVER,ALASKA,72.91056907275225,0.0,1,61.78975,-156.58852777
09M,CHARLESTON MUNI,CHARLESTON,MISSISSIPPI,72.88181480369042,0.0,1,33.99136111,-90.07855555
4R1,I H BASS JR MEML,LUMBERTON,MISSISSIPPI,72.88181480369042,0.0,1,31.01533333,-89.48255555
DLC,DILLON COUNTY,DILLON,SOUTH CAROLINA,72.73873045934228,0.0,1,34.44905555,-79.36858333
GFZ,GREENFIELD MUNI,GREENFIELD,IOWA,72.73571101603669,0.0,1,41.32722222,-94.44516666
C71,CROSBY MUNI,CROSBY,MISSISSIPPI,72.71317918347272,0.0,1,31.29640138,-91.0525375
T36,PAUL PITTMAN MEML,TYLERTOWN,MISSISSIPPI,72.69593799436792,0.0,1,31.14560472,-90.16790722
4R9,JEREMIAH DENTON,DAUPHIN ISLAND,ALABAMA,72.6931469010433,0.0,1,30.26048166,-88.12747305
42U,MORGAN COUNTY,MORGAN,UTAH,72.66721275332863,0.0,1,41.14867555,-111.76714861
AKW,KLAWOCK,KLAWOCK,ALASKA,72.58936814973006,0.0,1,55.57922222,-133.076
MYU,MEKORYUK,MEKORYUK,ALASKA,72.5730046840587,0.0,1,60.37238888,-166.27019444
JYG,ST JAMES MUNI,ST JAMES,MINNESOTA,72.5656963585503,0.0,1,43.98635388,-94.55797416
3M0,GASTONS,LAKEVIEW,ARKANSAS,72.4988508816658,0.0,1,36.34905555,-92.55580555
PSX,PALACIOS MUNI,PALACIOS,TEXAS,72.4973792699122,0.0,1,28.7275,-96.25094444
1OA4,KEPES FLYING FLD,SPRINGFIELD,OHIO,72.44232729454178,0.0,1,39.92363888,-83.66166666
L66,POLLOCK MUNI,POLLOCK,LOUISIANA,72.40387220743251,0.0,1,31.47747222,-92.46116666
HPB,HOOPER BAY,HOOPER BAY,ALASKA,72.30724214858544,0.0,1,61.52387055,-166.14662277
GGV,KWIGILLINGOK,KWIGILLINGOK,ALASKA,72.2982214858205,0.0,1,59.87568888,-163.1680875
EBA,ELBERT COUNTY-PATZ FLD,ELBERTON,GEORGIA,72.24440432055684,0.0,1,34.0954025,-82.8174925
PMD,PALMDALE USAF PLANT 42,PALMDALE,CALIFORNIA,72.23777399905511,0.0,1,34.62938888,-118.08455277
AKA,ATKA,ATKA,ALASKA,72.22987374159696,0.0,1,52.22058333,-174.20619444
14M,HOLLANDALE MUNI,HOLLANDALE,MISSISSIPPI,72.21638138630217,0.0,1,33.18251488,-90.83049347
PBV,ST GEORGE,ST GEORGE,ALASKA,72.10898371657333,0.0,1,56.57736111,-169.66372222
ANV,ANVIK,ANVIK,ALASKA,72.04491183253842,0.0,1,62.64733333,-160.19005555
WSN,SOUTH NAKNEK NR 2,SOUTH NAKNEK,ALASKA,72.03238006997795,0.0,1,58.70208333,-157.00258333
Z13,AKIACHAK,AKIACHAK,ALASKA,72.02215153263673,0.0,1,60.91380972,-161.49332916
WCR,CHANDALAR LAKE,CHANDALAR LAKE,ALASKA,72.01941574930392,0.0,1,67.50451666,-148.48322222
GLV,GOLOVIN,GOLOVIN,ALASKA,72.0121563489174,0.0,1,64.55045861,-163.00717194
P01,ERIC MARCUS MUNI,AJO,ARIZONA,71.87563203170984,0.0,1,32.45289027,-112.86140833
BVK,BUCKLAND,BUCKLAND,ALASKA,71.77893636471931,0.0,1,65.98155555,-161.14913888
8F3,CROSBYTON MUNI,CROSBYTON,TEXAS,71.76094933061985,0.0,1,33.62383333,-101.24086111
07R,BISHOP-WINDHAM,BISHOP,TEXAS,71.66949258390937,0.0,1,27.61016666,-97.75252777
4K5,OUZINKIE,OUZINKIE,ALASKA,71.66860279972583,0.0,1,57.94215516,-152.46499305
5KS,KASILOF,KASILOF,ALASKA,71.6566726818013,0.0,1,60.35052083,-151.26285638
7KA,TATITLEK,TATITLEK,ALASKA,71.6566726818013,0.0,1,60.87238888,-146.69116666
GTG,GRANTSBURG MUNI,GRANTSBURG,WISCONSIN,71.63325225258286,0.0,1,45.79837786,-92.66433091
33V,WALDEN-JACKSON COUNTY,WALDEN,COLORADO,71.58839414027597,0.0,1,40.75038888,-106.27152777
AQH,QUINHAGAK,QUINHAGAK,ALASKA,71.57622658166423,0.0,1,59.75509305,-161.84536555
9A3,CHUATHBALUK,CHUATHBALUK,ALASKA,71.5720435187907,0.0,1,61.57905555,-159.21563888
KKA,KOYUK ALFRED ADAMS,KOYUK,ALASKA,71.56716685694443,0.0,1,64.93952777,-161.15427777
DUY,KONGIGANAK,KONGIGANAK,ALASKA,71.56119382240597,0.0,1,59.96163055,-162.88059305
K29,COUNCIL,COUNCIL,ALASKA,71.52355239479836,0.0,1,64.89674722,-163.70349861
FSU,FORT SUMNER MUNI,FORT SUMNER,NEW MEXICO,71.4657335477651,0.0,1,34.4887513,-104.21641844
5S6,CAPE BLANCO STATE,SIXES,OREGON,71.41744629061313,0.0,1,42.85802777,-124.51780555
05D,NEW TOWN MUNI,NEW TOWN,NORTH DAKOTA,71.34342289854119,0.0,1,47.96785416,-102.47811638
IEN,PINE RIDGE,PINE RIDGE,SOUTH DAKOTA,71.33943010561404,0.0,1,43.02127372,-102.50660641
2D5,OAKES MUNI,OAKES,NORTH DAKOTA,71.30596382524587,0.0,1,46.17329611,-98.08003861
5U5,FAIRFIELD,FAIRFIELD,MONTANA,71.29397680850546,0.0,1,47.63383333,-111.98119444
MU97,LEXINGTON MUNI,LEXINGTON,MISSOURI,71.27931252899786,0.0,1,39.20988888,-93.92772222
3U7,BENCHMARK,AUGUSTA,MONTANA,71.23353180835583,0.0,1,47.48202777,-112.87230555
E81,SUPERIOR MUNI,SUPERIOR,ARIZONA,71.17579234127967,0.0,1,33.27783388,-111.127065
U55,PANGUITCH MUNI,PANGUITCH,UTAH,71.12296418437393,0.0,1,37.84522222,-112.39194444
JLA,QUARTZ CREEK,COOPER LANDING,ALASKA,71.11968830694411,0.0,1,60.48426388,-149.7229
Z09,KASIGLUK,KASIGLUK,ALASKA,71.10604326345002,0.0,1,60.87333333,-162.52430555
16A,NUNAPITCHUK,NUNAPITCHUK,ALASKA,71.0978192908219,0.0,1,60.906,-162.44058333
4A2,ATMAUTLUAK,ATMAUTLUAK,ALASKA,71.0978192908219,0.0,1,60.86787472,-162.274275
MKK,MOLOKAI,KAUNAKAKAI,HAWAII,71.04533992493845,0.0,1,21.15288583,-157.09625611
CEM,CENTRAL,CENTRAL,ALASKA,71.02180927987885,0.0,1,65.57394444,-144.78088888
E06,LEA COUNTY/ZIP FRANKLIN MEML,LOVINGTON,NEW MEXICO,70.996679608295,0.0,1,32.95394444,-103.40877777
D37,WARREN MUNI,WARREN,MINNESOTA,70.98740093865992,0.0,1,48.19116666,-96.71130555
S69,LINCOLN,LINCOLN,MONTANA,70.96208334616823,0.0,1,46.9547025,-112.65021694
KFP,FALSE PASS,FALSE PASS,ALASKA,70.85411587076622,0.0,1,54.84786111,-163.40711111
K06,GREATER BEARDSTOWN,BEARDSTOWN,ILLINOIS,70.85086647540902,0.0,1,39.97338138,-90.40373555
M90,WILLIAM ROBERT JOHNSTON MUNI,MENDOTA,CALIFORNIA,70.83903691317514,0.0,1,36.75861111,-120.37138888
E26,LEA COUNTY/JAL,JAL,NEW MEXICO,70.83491425570983,0.0,1,32.13107833,-103.15485055
09K,SARGENT MUNI,SARGENT,NEBRASKA,70.83009129538387,0.0,1,41.63491666,-99.34213888
CHQ,MISSISSIPPI COUNTY,CHARLESTON,MISSOURI,70.75735545613355,0.0,1,36.84213722,-89.35965777
PAK,PORT ALLEN,HANAPEPE,HAWAII,70.73629376656567,0.0,1,21.89694444,-159.60316666
9A8,UGASHIK,UGASHIK,ALASKA,70.71029297950292,0.0,1,57.523425,-157.39599444
CDA,CALEDONIA COUNTY,LYNDONVILLE,VERMONT,70.68950902267629,0.0,1,44.56911416,-72.01797888
T85,YOAKUM MUNI,YOAKUM,TEXAS,70.56410155974751,0.0,1,29.31316666,-97.13841666
5A8,ALEKNAGIK /NEW,ALEKNAGIK,ALASKA,70.55753131053105,0.0,1,59.28255555,-158.61786666
M10,MOUNTAINAIR MUNI,MOUNTAINAIR,NEW MEXICO,70.53173313943891,0.0,1,34.53333333,-106.22388888
63F,STANTON MUNI,STANTON,TEXAS,70.52617410453004,0.0,1,32.17358305,-101.82247222
03B,MANSFIELD MUNI,MANSFIELD,MISSOURI,70.51960010308458,0.0,1,37.12677777,-92.62161111
E34,SMILEY JOHNSON MUNI/BASS FLD,CLARENDON,TEXAS,70.51845062409046,0.0,1,34.9115,-100.86936111
BYA,BOUNDARY,BOUNDARY,ALASKA,70.46795580404293,0.0,1,64.07830277,-141.113375
H05,WILBURTON MUNI,WILBURTON,OKLAHOMA,70.44880423282791,0.0,1,34.92020694,-95.39390277
E05,HATCH MUNI,HATCH,NEW MEXICO,70.39718951995172,0.0,1,32.660292,-107.19540891
90NR,CALEDONIA TACTICAL LANDING ZONES,BOONES CROSSROADS,NORTH CAROLINA,70.3156579034453,0.0,1,36.31130833,-77.48303333
F35,POSSUM KINGDOM,GRAFORD,TEXAS,70.30926120432639,0.0,1,32.92332458,-98.43687277
M51,OKTIBBEHA,STARKVILLE,MISSISSIPPI,70.23638034268802,0.0,1,33.49767886,-88.68142191
6F1,TALIHINA MUNI,TALIHINA,OKLAHOMA,70.2257350520665,0.0,1,34.70777138,-95.07378583
68F,TEAGUE MUNI,TEAGUE,TEXAS,70.22280233472814,0.0,1,31.66175,-96.3105
2O6,CHOWCHILLA,CHOWCHILLA,CALIFORNIA,70.20660847155415,0.0,1,37.11327777,-120.247
8F5,GREATER MORRIS COUNTY,DAINGERFIELD,TEXAS,70.17926851641158,0.0,1,33.14805916,-94.70014888
E51,BAGDAD,BAGDAD,ARIZONA,70.13885309606276,0.0,1,34.59289444,-113.17194861
1U7,BEAR LAKE COUNTY,PARIS,IDAHO,70.13322224483875,0.0,0,42.24976111,-111.34162722
ORI,PORT LIONS,PORT LIONS,ALASKA,70.1322767604107,0.0,1,57.884925,-152.84757222
5F4,HOMER MUNI,HOMER,LOUISIANA,70.12900709275817,0.0,1,32.7885,-93.00364416
RQE,WINDOW ROCK,WINDOW ROCK,ARIZONA,70.12724129891897,0.0,1,35.65205555,-109.06738888
F31,LAKE TEXOMA STATE PARK,KINGSTON,OKLAHOMA,70.06284181376336,0.0,1,33.99105555,-96.64272222
23N,BAYPORT AERODROME,BAYPORT,NEW YORK,70.04485327364513,0.0,1,40.75759611,-73.05268972
S42,SPRINGER MUNI,SPRINGER,NEW MEXICO,69.95805691408593,0.0,1,36.33152222,-104.61785138
9Z9,LAWING,LAWING,ALASKA,69.91363080697396,0.0,1,60.41188472,-149.36934166
PHO,POINT HOPE,POINT HOPE,ALASKA,69.90798984178204,0.0,1,68.34812872,-166.79912675
0M2,REELFOOT LAKE,TIPTONVILLE,TENNESSEE,69.894945389684,0.0,1,36.47533333,-89.34630555
ESW,EASTON STATE,EASTON,WASHINGTON,69.89169741250697,0.0,1,47.25418388,-121.18553166
K07,ROLLA DOWNTOWN,ROLLA,MISSOURI,69.83627503634403,0.0,1,37.93565222,-91.8135475
CXE,CHASE CITY MUNI,CHASE CITY,VIRGINIA,69.82088985838719,0.0,1,36.78833555,-78.50155361
T16,RESERVE,RESERVE,NEW MEXICO,69.75375163844475,0.0,1,33.69433888,-108.849975
1A7,JACKSON COUNTY,GAINESBORO,TENNESSEE,69.73513468002663,0.0,1,36.39681694,-85.64132527
E92,ESTANCIA MUNI,ESTANCIA,NEW MEXICO,69.66900058144302,0.0,1,34.76339333,-106.04140555
N29,MAGDALENA,MAGDALENA,NEW MEXICO,69.66900058144302,0.0,1,34.09452958,-107.29691763
E89,CONCHAS LAKE,CONCHAS DAM,NEW MEXICO,69.64018381439936,0.0,1,35.36783888,-104.18050833
FLY,MEADOW LAKE,COLORADO SPRINGS,COLORADO,69.55299543506021,0.0,0,38.94276972,-104.56990472
C77,POPLAR GROVE,POPLAR GROVE,ILLINOIS,69.54330696540333,0.0,0,42.32286111,-88.83630555
KAE,KAKE,KAKE,ALASKA,69.53450087176962,0.0,1,56.97299638,-133.94561472
EEK,EEK,EEK,ALASKA,69.53450087176962,0.0,1,60.21369444,-162.04388888
A61,TUNTUTULIAK,TUNTUTULIAK,ALASKA,69.53450087176962,0.0,1,60.35110833,-162.65461111
4KA,TUNUNAK,TUNUNAK,ALASKA,69.53450087176962,0.0,1,60.56952777,-165.24627777
MYK,MAY CREEK,MAY CREEK,ALASKA,69.53450087176962,0.0,1,61.33616111,-142.68588611
AUK,ALAKANUK,ALAKANUK,ALASKA,69.53450087176962,0.0,1,62.68305555,-164.72219444
Z14,TAZLINA,TAZLINA,ALASKA,69.53450087176962,0.0,1,62.06478861,-146.46052194
Z55,LAKE LOUISE,LAKE LOUISE,ALASKA,69.53450087176962,0.0,1,62.29161805,-146.57735
KVL,KIVALINA,KIVALINA,ALASKA,69.53450087176962,0.0,1,67.73613888,-164.5635
GNU,GOODNEWS,GOODNEWS,ALASKA,69.53450087176962,0.0,1,59.11786111,-161.57366666
IIK,KIPNUK,KIPNUK,ALASKA,69.53450087176962,0.0,1,59.93161111,-164.02811111
KGX,GRAYLING,GRAYLING,ALASKA,69.53450087176962,0.0,1,62.8920853,-160.06639688
SHG,SHUNGNAK,SHUNGNAK,ALASKA,69.53450087176962,0.0,1,66.88808333,-157.16241666
Z90,STAMPEDE,KANTISHNA,ALASKA,69.53450087176962,0.0,1,63.75120555,-150.33026388
IAN,BOB BAKER MEML,KIANA,ALASKA,69.53450087176962,0.0,1,66.9761775,-160.43859916
CKU,CORDOVA MUNI,CORDOVA,ALASKA,69.53450087176962,0.0,1,60.54364444,-145.72585416
Z47,ENGSTROM FLD,BASIN CREEK,ALASKA,69.53450087176962,0.0,1,64.67909027,-165.29920138
WTK,NOATAK,NOATAK,ALASKA,69.53450087176962,0.0,1,67.56116666,-162.98041666
Z93,COPPER CENTER 2,COPPER CENTER,ALASKA,69.53450087176962,0.0,1,61.94119,-145.29408083
KYK,KARLUK,KARLUK,ALASKA,69.53450087176962,0.0,1,57.56605555,-154.45380555
2A3,LARSEN BAY,LARSEN BAY,ALASKA,69.53450087176962,0.0,1,57.53508333,-153.97666666
HCA,HOLY CROSS,HOLY CROSS,ALASKA,69.53450087176962,0.0,1,62.18830555,-159.77494444
TOG,TOGIAK,TOGIAK VILLAGE,ALASKA,69.53450087176962,0.0,1,59.05355555,-160.39677777
SMU,SHEEP MOUNTAIN,SHEEP MOUNTAIN,ALASKA,69.53450087176962,0.0,1,61.81128055,-147.50905138
5CD,CHANDALAR SHELF,CHANDALAR CAMP,ALASKA,69.53450087176962,0.0,1,68.06543944,-149.57973916
WNA,NAPAKIAK,NAPAKIAK,ALASKA,69.53450087176962,0.0,1,60.69033333,-161.9785
CXC,CHITINA,CHITINA,ALASKA,69.53450087176962,0.0,1,61.58320277,-144.42980277
A79,CHIGNIK LAKE,CHIGNIK LAKE,ALASKA,69.53450087176962,0.0,1,56.25545694,-158.77783194
AJC,CHIGNIK,CHIGNIK,ALASKA,69.53450087176962,0.0,1,56.31146263,-158.37323819
KCL,CHIGNIK LAGOON,CHIGNIK LAGOON,ALASKA,69.53450087176962,0.0,1,56.31096666,-158.53448611
OOH,HOONAH,HOONAH,ALASKA,69.53450087176962,0.0,1,58.11215944,-135.451805
AGN,ANGOON,ANGOON,ALASKA,69.53450087176962,0.0,1,57.50355527,-134.58509388
IGT,NIGHTMUTE,NIGHTMUTE,ALASKA,69.53450087176962,0.0,1,60.46917083,-164.7040375
5QC,QUARTZ CREEK / KOUGAROK,QUARTZ CREEK,ALASKA,69.53450087176962,0.0,1,65.40593305,-164.65572472
ELV,ELFIN COVE,ELFIN COVE,ALASKA,69.53450087176962,0.0,1,58.19518416,-136.34739277
TLT,TULUKSAK,TULUKSAK,ALASKA,69.53450087176962,0.0,1,61.08772777,-160.92335277
AKK,AKHIOK,AKHIOK,ALASKA,69.53450087176962,0.0,1,56.93869083,-154.18255555
A14,PORTAGE CREEK,PORTAGE CREEK,ALASKA,69.53450087176962,0.0,1,58.906525,-157.71116666
PTU,PLATINUM,PLATINUM,ALASKA,69.53450087176962,0.0,1,59.01783055,-161.82719166
4AK,LIVENGOOD CAMP,LIVENGOOD,ALASKA,69.53450087176962,0.0,1,65.46726944,-148.65374722
PEC,PELICAN,PELICAN,ALASKA,69.53450087176962,0.0,1,57.95517222,-136.23627333
A29,SITKA,SITKA,ALASKA,69.53450087176962,0.0,1,57.05213777,-135.34620861
IEM,WHITTIER,WHITTIER,ALASKA,69.53450087176962,0.0,1,60.77716944,-148.71965277
KNW,NEW STUYAHOK,NEW STUYAHOK,ALASKA,69.53450087176962,0.0,1,59.45152777,-157.37316666
0AK,PILOT STATION,PILOT STATION,ALASKA,69.53450087176962,0.0,1,61.96147697,-162.94235461
AHP,PORT ALEXANDER,PORT ALEXANDER,ALASKA,69.53450087176962,0.0,1,56.24684222,-134.64815388
EXI,EXCURSION INLET,EXCURSION INLET,ALASKA,69.53450087176962,0.0,1,58.42049861,-135.44903277
HYG,HYDABURG,HYDABURG,ALASKA,69.53450087176962,0.0,1,55.20631611,-132.82831305
TKE,TENAKEE,TENAKEE SPRINGS,ALASKA,69.53450087176962,0.0,1,57.77965833,-135.21844388
63A,LLOYD R ROUNDTREE SEAPLANE FACILITY,PETERSBURG,ALASKA,69.53450087176962,0.0,1,56.81131972,-132.96005666
PKA,NAPASKIAK,NAPASKIAK,ALASKA,69.53450087176962,0.0,1,60.7029125,-161.7783075
AK82,CAMPBELL BLM,ANCHORAGE,ALASKA,69.53418327300923,0.0,1,61.15613055,-149.7923
HWI,HAWK INLET,HAWK INLET,ALASKA,69.53418327300923,0.0,1,58.12744138,-134.75595305
26AK,CAPE SARICHEF,CAPE SARICHEF,ALASKA,69.53418327300923,0.0,1,54.58243111,-164.91448083
AK97,BOSWELL BAY,BOSWELL BAY,ALASKA,69.53418327300923,0.0,1,60.42306416,-146.14590944
MOS,MOSES POINT,ELIM,ALASKA,69.53418327300923,0.0,1,64.69818194,-162.05729916
X58,INDIANTOWN,INDIANTOWN,FLORIDA,69.53314559990844,0.0,0,27.0375,-80.441
0F3,SPIRIT LAKE MUNI,SPIRIT LAKE,IOWA,69.49898135927175,0.0,1,43.38742083,-95.13946805
SGY,SKAGWAY,SKAGWAY,ALASKA,69.49893948076975,0.0,1,59.4602,-135.31685972
W33,FRIDAY HARBOR,FRIDAY HARBOR,WASHINGTON,69.48925380152939,0.0,1,48.53732194,-123.00962361
7S8,ROSS INTL,SWEETGRASS,MONTANA,69.4468992651673,0.0,1,48.99855555,-111.97822222
LNL,KINGS LAND O' LAKES,LAND O' LAKES,WISCONSIN,69.40979611164892,0.0,0,46.1541175,-89.211965
S75,PAYETTE MUNI,PAYETTE,IDAHO,69.40658118147502,0.0,0,44.09397361,-116.90310555
F98,YOAKUM COUNTY,PLAINS,TEXAS,69.3894474356493,0.0,0,33.21719444,-102.83008333
D25,MANITOWISH WATERS,MANITOWISH WATERS,WISCONSIN,69.35100496956298,0.0,0,46.12022705,-89.88219997
BCV,BIRCHWOOD,BIRCHWOOD,ALASKA,69.34594227367586,0.0,0,61.4160875,-149.50830977
NY10,DUFLO,NEW BREMEN,NEW YORK,69.34341136337157,0.0,0,43.84256888,-75.43074027
U07,BULLFROG BASIN,GLEN CANYON NATL REC AREA,UTAH,69.34296737781617,0.0,1,37.54582361,-110.71319916
U01,SAVAGE FLD,AMERICAN FALLS,IDAHO,69.3394766790945,0.0,0,42.79731666,-112.82518666
9I3,WEST LIBERTY,WEST LIBERTY,KENTUCKY,69.3379170855768,0.0,1,37.91443333,-83.25194305
LIC,LIMON MUNI,LIMON,COLORADO,69.3307484856183,0.0,0,39.27477777,-103.66586111
OVS,BOSCOBEL,BOSCOBEL,WISCONSIN,69.30674896528538,0.0,0,43.16080666,-90.67397805
S70,OTHELLO MUNI,OTHELLO,WASHINGTON,69.30106325354673,0.0,0,46.7942175,-119.08010888
63C,ADAMS COUNTY LEGION FLD,FRIENDSHIP (ADAMS),WISCONSIN,69.29124736807866,0.0,0,43.96058808,-89.78864444
P15,BROKENSTRAW,PITTSFIELD,PENNSYLVANIA,69.27397433479662,0.0,0,41.83294027,-79.36067083
Y50,WAUTOMA MUNI,WAUTOMA,WISCONSIN,69.2598559637207,0.0,0,44.04313508,-89.30569052
33N,DELAWARE AIRPARK,DOVER/CHESWOLD,DELAWARE,69.24859630663286,0.0,0,39.21869444,-75.60047222
4S9,MULINO STATE,PORTLAND-MULINO,OREGON,69.24409789739238,0.0,0,45.21655555,-122.59019444
MLD,MALAD CITY,MALAD CITY,IDAHO,69.24187596411703,0.0,0,42.17012633,-112.29267925
0B1,BETHEL RGNL,BETHEL,MAINE,69.23108617212087,0.0,0,44.42516666,-70.80991666
S95,MARTIN FLD,COLLEGE PLACE,WASHINGTON,69.23054729118715,0.0,0,46.04693916,-118.41717777
BQP,MOREHOUSE MEML,BASTROP,LOUISIANA,69.22754887464603,0.0,0,32.75608333,-91.88058333
E35,FABENS,FABENS,TEXAS,69.17232167140955,0.0,0,31.51719722,-106.14706111
1TE0,LOCKER BROTHERS,MULESHOE,TEXAS,69.17232167140955,0.0,0,34.26952166,-102.71715972
CO12,VAN AIRE,BRIGHTON,COLORADO,69.16708474215383,0.0,0,39.98338055,-104.70447777
N12,LAKEWOOD,LAKEWOOD,NEW JERSEY,69.16574061281088,0.0,0,40.06688888,-74.17755555
SD05,THORSON AIRFIELD,ABERDEEN,SOUTH DAKOTA,69.1351339665964,0.0,0,45.36861111,-98.47194444
9N1,VANSANT,ERWINNA,PENNSYLVANIA,69.10709132378366,0.0,0,40.48426972,-75.09961611
N82,WURTSBORO/SULLIVAN COUNTY,WURTSBORO,NEW YORK,69.10455682587363,0.0,0,41.59790166,-74.45915916
NY0,FULTON COUNTY,JOHNSTOWN,NEW YORK,69.10455682587363,0.0,0,42.99819444,-74.32955472
TKC,TRACY MUNI,TRACY,MINNESOTA,69.09975427595978,0.0,0,44.24923944,-95.60722916
C81,CAMPBELL,GRAYSLAKE,ILLINOIS,69.09956299679517,0.0,0,42.32461111,-88.07408805
W11,SULLIVAN,SULLIVAN,WISCONSIN,69.09500408497051,0.0,0,43.00720472,-88.60282319
2B3,PARLIN FLD,NEWPORT,NEW HAMPSHIRE,69.09063908833565,0.0,0,43.38713527,-72.18761416
D57,GLEN ULLIN RGNL,GLEN ULLIN,NORTH DAKOTA,69.08819668188491,0.0,0,46.81430555,-101.86519444
46D,CARRINGTON MUNI,CARRINGTON,NORTH DAKOTA,69.08819668188491,0.0,0,47.45111111,-99.15133333
IDG,IDA GROVE MUNI,IDA GROVE,IOWA,69.07034543702841,0.0,1,42.33259777,-95.44488777
00M,THIGPEN FLD,BAY SPRINGS,MISSISSIPPI,69.0545950199859,0.0,1,31.95375,-89.23533333
K74,ROBERT ODEGAARD FLD,KINDRED,NORTH DAKOTA,69.03757560492666,0.0,0,46.64873075,-96.99900961
5H4,HARVEY MUNI,HARVEY,NORTH DAKOTA,69.03665283289968,0.0,0,47.79122222,-99.93175
1TE4,ZUEHL,MARION,TEXAS,69.01980034897083,0.0,0,29.49563194,-98.15887916
W28,SEQUIM VALLEY,SEQUIM,WASHINGTON,69.01598406256669,0.0,0,48.09792222,-123.18792083
7W6,HYDE COUNTY,ENGELHARD,NORTH CAROLINA,69.00488576682308,0.0,0,35.56203694,-75.95565416
11CL,HANSEN,ADELANTO,CALIFORNIA,68.99689284121327,0.0,0,34.62999,-117.65339083
0S7,DOROTHY SCOTT INTL,OROVILLE,WASHINGTON,68.99648730923862,0.0,0,48.95897222,-119.41197222
9K8,KINGMAN/CLYDE CESSNA FLD,KINGMAN,KANSAS,68.99009436606444,0.0,0,37.66901611,-98.12389169
25D,FOREST LAKE,FOREST LAKE,MINNESOTA,68.98745456490684,0.0,0,45.24740972,-92.99285416
M30,METROPOLIS MUNI,METROPOLIS,ILLINOIS,68.98613169970581,0.0,0,37.18294444,-88.75066666
GHW,GLENWOOD MUNI,GLENWOOD,MINNESOTA,68.98426771399205,0.0,0,45.64383013,-95.32044891
5L0,LAKOTA MUNI,LAKOTA,NORTH DAKOTA,68.98029028595295,0.0,0,48.02891666,-98.32575
5N4,SKY HAVEN,ENDERLIN,NORTH DAKOTA,68.97990911728701,0.0,0,46.626862,-97.62023219
18V,PLATTE VALLEY AIRPARK,HUDSON,COLORADO,68.97692013912241,0.0,0,40.10272222,-104.70119444
2V6,YUMA MUNI,YUMA,COLORADO,68.97692013912241,0.0,0,40.10571047,-102.71443769
6B6,MINUTE MAN AIR FLD,STOW,MASSACHUSETTS,68.97310760143736,0.0,0,42.46038541,-71.51801188
8NY9,NASSAU COUNTY POLICE,BETHPAGE,NEW YORK,68.96738372949471,0.0,1,40.74555,-73.49073888
CQJ,CHEYENNE MTN SFS,COLORADO SPRINGS,COLORADO,68.96033097915029,0.0,1,38.738525,-104.83513611
U10,PRESTON,PRESTON,IDAHO,68.95799822139202,0.0,0,42.10693611,-111.91257083
U78,ALLEN H TIGERT,SODA SPRINGS,IDAHO,68.95416421930557,0.0,0,42.6485,-111.58180555
10C,GALT FLD,GREENWOOD/WONDER LAKE,ILLINOIS,68.94234903733343,0.0,0,42.40288888,-88.37511111
2J9,QUINCY MUNI,QUINCY,FLORIDA,68.9230941220255,0.0,0,30.59788638,-84.55744027
X13,CARRABELLE-THOMPSON,CARRABELLE,FLORIDA,68.9230941220255,0.0,0,29.842,-84.70111111
X06,ARCADIA MUNI,ARCADIA,FLORIDA,68.9230941220255,0.0,0,27.19531805,-81.8382275
1N7,BLAIRSTOWN,BLAIRSTOWN,NEW JERSEY,68.9196444490133,0.0,0,40.97113313,-74.99750405
9A4,COURTLAND,COURTLAND,ALABAMA,68.90392955542762,0.0,0,34.65815833,-87.34855805
N87,TRENTON-ROBBINSVILLE,ROBBINSVILLE,NEW JERSEY,68.8985654493821,0.0,0,40.21394444,-74.60177777
02C,CAPITOL DRIVE,BROOKFIELD,WISCONSIN,68.8953796399838,0.0,0,43.08964136,-88.17944525
U69,DUCHESNE MUNI,DUCHESNE,UTAH,68.89537190037021,0.0,0,40.19363527,-110.38262388
44N,SKY ACRES,MILLBROOK,NEW YORK,68.88152945056679,0.0,0,41.70742388,-73.7380225
RAW,WARSAW MUNI,WARSAW,MISSOURI,68.88087687580473,0.0,0,38.34784722,-93.3453875
9XS6,SUDAN,SUDAN,TEXAS,68.8801307929455,0.0,0,34.05314277,-102.52213972
S71,EDGAR G OBIE,CHINOOK,MONTANA,68.87057954676527,0.0,0,48.59211111,-109.25061111
PNM,PRINCETON MUNI,PRINCETON,MINNESOTA,68.86923660087415,0.0,0,45.55986111,-93.60822222
6P7,MCVILLE,FREEPORT,PENNSYLVANIA,68.86270248134771,0.0,0,40.7345625,-79.59564583
9S5,THREE FORKS,THREE FORKS,MONTANA,68.8623453118114,0.0,0,45.87811111,-111.56944444
N57,NEW GARDEN,TOUGHKENAMON,PENNSYLVANIA,68.85312433313405,0.0,0,39.8305125,-75.76975361
MMK,MERIDEN MARKHAM MUNI,MERIDEN,CONNECTICUT,68.84934261776527,0.0,0,41.50871472,-72.82947833
7B6,SKYLARK AIRPARK,WAREHOUSE POINT,CONNECTICUT,68.84934261776527,0.0,0,41.92841666,-72.57638888
MZH,MOOSE LAKE CARLTON COUNTY,MOOSE LAKE,MINNESOTA,68.84372231077023,0.0,0,46.41861111,-92.80477777
59B,NEWTON FLD,JACKMAN,MAINE,68.82950557858523,0.0,0,45.63244416,-70.24749472
SNC,CHESTER,CHESTER,CONNECTICUT,68.82926281436221,0.0,0,41.38370944,-72.50578722
7V2,NORTH FORK VALLEY,PAONIA,COLORADO,68.82517139299193,0.0,0,38.83130555,-107.64586111
Y49,WALKER MUNI,WALKER,MINNESOTA,68.81557232088811,0.0,0,47.15948066,-94.64534669
36K,KEARNY COUNTY,LAKIN,KANSAS,68.79900699100604,0.0,0,37.96944444,-101.25558333
K81,MIAMI COUNTY,PAOLA,KANSAS,68.79126879122362,0.0,0,38.54064138,-94.92022333
S05,BANDON STATE,BANDON,OREGON,68.78931012909356,0.0,0,43.08647222,-124.40786111
CN37,KELSO VALLEY,MOJAVE,CALIFORNIA,68.785547420407,0.0,0,35.38363747,-118.22029025
9I0,HAVANA RGNL,HAVANA,ILLINOIS,68.7670473422462,0.0,0,40.22269305,-90.02278194
3F4,VIVIAN,VIVIAN,LOUISIANA,68.71437479361529,0.0,0,32.86133333,-94.01015361
96D,WALHALLA MUNI,WALHALLA,NORTH DAKOTA,68.70532698855779,0.0,0,48.94057319,-97.90277763
E41,REAGAN COUNTY,BIG LAKE,TEXAS,68.70482909785827,0.0,0,31.19862472,-101.475245
10AZ,FARM AG,BUCKEYE,ARIZONA,68.70126488242806,0.0,0,33.36670833,-112.61877805
ASY,ASHLEY MUNI,ASHLEY,NORTH DAKOTA,68.69761358239461,0.0,0,46.02315555,-99.35257472
M66,ALFRED SCHROEDER FLD,HILLSBORO,KANSAS,68.69538189757066,0.0,0,38.34157083,-97.21387222
47N,CENTRAL JERSEY RGNL,MANVILLE,NEW JERSEY,68.69436387885689,0.0,0,40.52444444,-74.59830555
K49,TEXHOMA MUNI,TEXHOMA,OKLAHOMA,68.68207234384955,0.0,0,36.50561111,-101.81366666
3N6,OLD BRIDGE,OLD BRIDGE,NEW JERSEY,68.68154895519648,0.0,0,40.32988666,-74.34678694
1H3,STATE TECHNICAL COLLEGE OF MISSOURI,LINN,MISSOURI,68.68100341047132,0.0,0,38.47161111,-91.81722222
Y72,BLOYER FLD,TOMAH,WISCONSIN,68.66476595852048,0.0,0,43.97622222,-90.48061111
UBE,CUMBERLAND MUNI,CUMBERLAND,WISCONSIN,68.66476595852048,0.0,0,45.50609966,-91.98080211
3U8,BIG SANDY,BIG SANDY,MONTANA,68.65826464090377,0.0,0,48.16343586,-110.11428386
K58,HAROLD KRIER FLD,ASHLAND,KANSAS,68.6506764631713,0.0,0,37.16669361,-99.77512805
LRY,LAWRENCE SMITH MEML,HARRISONVILLE,MISSOURI,68.64499128746262,0.0,0,38.61019444,-94.34352777
THM,THOMPSON FALLS,THOMPSON FALLS,MONTANA,68.64462083956008,0.0,0,47.57349777,-115.28065611
9G3,AKRON/JESSON FLD,AKRON,NEW YORK,68.64039266970161,0.0,0,43.02109622,-78.48263319
8U8,BROADWATER COUNTY,TOWNSEND,MONTANA,68.63780929218525,0.0,0,46.33123194,-111.48258611
44M,TENKILLER LAKE AIRPARK,COOKSON,OKLAHOMA,68.63188314326992,0.0,0,35.70497222,-94.93613888
6S3,WOLTERMANN MEML,COLUMBUS,MONTANA,68.6295236898674,0.0,0,45.63052388,-109.239215
3T3,BOYCEVILLE MUNI,BOYCEVILLE,WISCONSIN,68.62915460952975,0.0,0,45.04395325,-92.02132816
4WI9,CORNELL MUNI,CORNELL,WISCONSIN,68.62915460952975,0.0,0,45.16552222,-91.10569722
Y51,VIROQUA MUNI,VIROQUA,WISCONSIN,68.62915460952975,0.0,0,43.5796375,-90.89770694
C08,SILVER WEST,WESTCLIFFE,COLORADO,68.62727589894017,0.0,0,38.01327777,-105.37427222
1B2,KATAMA AIRPARK,EDGARTOWN,MASSACHUSETTS,68.61125014020718,0.0,0,41.35845055,-70.52447055
OLG,SOLON SPRINGS MUNI,SOLON SPRINGS,WISCONSIN,68.60561488201466,0.0,0,46.31475388,-91.81637583
N72,WARWICK MUNI,WARWICK,NEW YORK,68.6054656599099,0.0,0,41.28759361,-74.28709472
AFN,JAFFREY AIRFIELD SILVER RANCH,JAFFREY,NEW HAMPSHIRE,68.59523234161223,0.0,0,42.80513416,-72.00302194
SAZ,STAPLES MUNI,STAPLES,MINNESOTA,68.5920639970806,0.0,0,46.38087944,-94.80660166
3N8,MAHNOMEN COUNTY,MAHNOMEN,MINNESOTA,68.59082484517317,0.0,0,47.26050516,-95.92808683
U08,PERKINS FLD,OVERTON,NEVADA,68.57733136121017,0.0,0,36.56810888,-114.44332972
TDO,ED CARLSON MEML FLD/SOUTH LEWIS COUNTY,TOLEDO,WASHINGTON,68.55399920933917,0.0,0,46.47716916,-122.80647583
0B4,HARTINGTON MUNI/BUD BECKER FLD,HARTINGTON,NEBRASKA,68.54125118740507,0.0,0,42.60308333,-97.2535
8V2,STUART-ATKINSON MUNI,ATKINSON,NEBRASKA,68.54032841537808,0.0,0,42.56269888,-99.03881027
CA33,COUNTY MEDICAL CENTER,SAN JOSE,CALIFORNIA,68.53529685577689,0.0,0,37.31325555,-121.93435555
W00,FREEWAY,BOWIE,MARYLAND,68.5257645327336,0.0,0,38.94135194,-76.77238305
L70,AGUA DULCE,AGUA DULCE,CALIFORNIA,68.52260038043627,0.0,0,34.50351483,-118.31315716
AKQ,WAKEFIELD MUNI,WAKEFIELD,VIRGINIA,68.51576201719469,0.0,0,36.98722222,-77.00113888
44C,BELOIT,BELOIT,WISCONSIN,68.49326429381976,0.0,0,42.49777777,-88.96761111
76N,SKYHAVEN,TUNKHANNOCK,PENNSYLVANIA,68.48732225415223,0.0,0,41.52816388,-75.94588055
CYW,CLAY CENTER MUNI,CLAY CENTER,KANSAS,68.47682985682283,0.0,0,39.38713888,-97.15722222
43K,MARION MUNI,MARION,KANSAS,68.47670768842428,0.0,0,38.33761111,-96.98825
9K7,ELLSWORTH MUNI,ELLSWORTH,KANSAS,68.47670768842428,0.0,0,38.751,-98.22916666
MEJ,MEADE MUNI,MEADE,KANSAS,68.4757849163973,0.0,0,37.27867505,-100.35645566
4B9,SIMSBURY,SIMSBURY,CONNECTICUT,68.47512483163828,0.0,0,41.91619444,-72.77694444
ME35,TERRA B & B,LEVANT,MAINE,68.46915094095954,0.0,0,44.93145666,-69.00726138
K68,GARNETT MUNI,GARNETT,KANSAS,68.45861684159114,0.0,0,38.27730555,-95.21522222
4M2,BOONEVILLE MUNI,BOONEVILLE,ARKANSAS,68.44550677609139,0.0,0,35.14952633,-93.86338955
P19,STELLAR AIRPARK,CHANDLER,ARIZONA,68.44135343276295,0.0,0,33.29877111,-111.9157875
TYL,TAYLOR,TAYLOR,ARIZONA,68.44135343276295,0.0,0,34.45273222,-110.11503472
54AZ,SOMERTON,SOMERTON,ARIZONA,68.44095240014279,0.0,0,32.60363611,-114.66799722
8D4,PAUL C MILLER/SPARTA,SPARTA,MICHIGAN,68.43108667949942,0.0,0,43.1274375,-85.67913
2D1,LEE FLD,ALLIANCE,OHIO,68.42580133558585,0.0,0,40.96997075,-81.09866697
SYN,STANTON AIRFIELD,STANTON,MINNESOTA,68.42177401551575,0.0,0,44.47552161,-93.01632005
4S7,MALIN,MALIN,OREGON,68.42104791785606,0.0,0,42.00113888,-121.39636111
D39,SAUK CENTRE MUNI,SAUK CENTRE,MINNESOTA,68.41846499620242,0.0,0,45.70660266,-94.93324647
14Y,TODD FLD,LONG PRAIRIE,MINNESOTA,68.41717245030661,0.0,0,45.89759416,-94.87362277
I73,MORAINE AIR PARK,DAYTON,OHIO,68.4077104887527,0.0,0,39.68210972,-84.23999166
U02,MCCARLEY FLD,BLACKFOOT,IDAHO,68.40435306307018,0.0,0,43.20924888,-112.34958527
93Y,DAVID CITY MUNI,DAVID CITY,NEBRASKA,68.40082465006392,0.0,0,41.23032972,-97.12253083
04W,FIELD OF DREAMS,HINCKLEY,MINNESOTA,68.39908160347346,0.0,0,46.02286811,-92.89517441
B16,WHITFORDS,WEEDSPORT,NEW YORK,68.39873671580706,0.0,0,43.08061736,-76.53821105
4MB,MOULTONBOROUGH,MOULTONBOROUGH,NEW HAMPSHIRE,68.3864694860197,0.0,0,43.76745702,-71.38762616
PWC,PINE RIVER RGNL,PINE RIVER,MINNESOTA,68.37903756959437,0.0,0,46.72478777,-94.38169972
62D,WARREN,WARREN,OHIO,68.37278347896098,0.0,0,41.26702777,-80.92736111
SJX,BEAVER ISLAND,BEAVER ISLAND,MICHIGAN,68.37132226487117,0.0,0,45.69222222,-85.56661111
D14,FERTILE MUNI,FERTILE,MINNESOTA,68.35997723888988,0.0,0,47.55185777,-96.29215527
5N8,CASSELTON ROBERT MILLER RGNL,CASSELTON,NORTH DAKOTA,68.35382794786618,0.0,0,46.85394444,-97.20786111
JQD,OHIO COUNTY,HARTFORD,KENTUCKY,68.35264079507647,0.0,0,37.45854777,-86.84982416
JY73,RED LION,VINCENTOWN,NEW JERSEY,68.34621094562033,0.0,0,39.90415166,-74.74954916
0C0,DACY,HARVARD,ILLINOIS,68.34347981024254,0.0,0,42.40247222,-88.63238888
ANP,LEE,ANNAPOLIS,MARYLAND,68.33832316729729,0.0,0,38.94287638,-76.56839
31E,EAGLES NEST,WEST CREEK,NEW JERSEY,68.32010008331952,0.0,0,39.66545416,-74.30804444
N30,CHERRY RIDGE,HONESDALE,PENNSYLVANIA,68.30849526890617,0.0,0,41.51559166,-75.25155972
RFG,ROOKE FLD,REFUGIO,TEXAS,68.30835263703577,0.0,0,28.29581666,-97.32597194
CHN,WAUCHULA MUNI,WAUCHULA,FLORIDA,68.29559621983125,0.0,0,27.51491666,-81.88047222
2K9,HASKELL,HASKELL,OKLAHOMA,68.28841388862193,0.0,0,35.83285252,-95.667417
81R,SAN SABA COUNTY MUNI,SAN SABA,TEXAS,68.28544156753239,0.0,0,31.23574527,-98.71769388
24F,CYPRESS RIVER,JEFFERSON,TEXAS,68.28544156753239,0.0,0,32.74431416,-94.30468861
4P3,FLANDREAU MUNI,FLANDREAU,SOUTH DAKOTA,68.28189032040018,0.0,0,44.004055,-96.59317388
N43,BRADEN AIRPARK,EASTON,PENNSYLVANIA,68.28069783333557,0.0,0,40.74216666,-75.24294444
W63,LAKE COUNTRY RGNL,CLARKSVILLE,VIRGINIA,68.27071427388059,0.0,0,36.59636666,-78.55972944
93C,RICHLAND,RICHLAND CENTER,WISCONSIN,68.27018473126587,0.0,0,43.2833575,-90.29828194
W81,CREWE MUNI,CREWE,VIRGINIA,68.26955325827215,0.0,0,37.18101222,-78.09847469
5B6,FALMOUTH AIRPARK,FALMOUTH,MASSACHUSETTS,68.26574969231692,0.0,0,41.58558333,-70.54036111
9G5,ROYALTON,GASPORT,NEW YORK,68.25996521201964,0.0,0,43.18200222,-78.55780527
SDC,WILLIAMSON/SODUS,WILLIAMSON/SODUS,NEW YORK,68.25996521201964,0.0,0,43.2345975,-77.11946388
7A3,LANETT RGNL,LANETT,ALABAMA,68.25906116621044,0.0,0,32.81184333,-85.22948638
CKX,CHICKEN,CHICKEN,ALASKA,68.2586768644629,0.0,0,64.06675138,-141.95134722
I71,MORGAN COUNTY,MC CONNELSVILLE,OHIO,68.25145089812372,0.0,0,39.65423472,-81.8031875
RIR,FLABOB,RIVERSIDE/RUBIDOUX/,CALIFORNIA,68.2430125606611,0.0,0,33.9887875,-117.40990972
GBR,WALTER J KOLADZA,GREAT BARRINGTON,MASSACHUSETTS,68.24283862281354,0.0,0,42.18421416,-73.40324055
3B3,STERLING,STERLING,MASSACHUSETTS,68.24283862281354,0.0,0,42.4259025,-71.79285083
FBR,FORT BRIDGER,FORT BRIDGER,WYOMING,68.23829893515742,0.0,0,41.39333333,-110.40597222
BQR,BUFFALO-LANCASTER RGNL,BUFFALO,NEW YORK,68.23705414251626,0.0,0,42.92205555,-78.61197222
N85,ALEXANDRIA,PITTSTOWN,NEW JERSEY,68.21601076061111,0.0,0,40.58757388,-75.01942055
9M8,SHERIDAN-GRANT COUNTY RGNL,SHERIDAN,ARKANSAS,68.19582776262571,0.0,0,34.32752777,-92.35133333
32A,DANVILLE MUNI,DANVILLE,ARKANSAS,68.19521354355169,0.0,0,35.0872625,-93.42892416
5B9,DEAN MEML,HAVERHILL,NEW HAMPSHIRE,68.18853955412479,0.0,0,44.08017283,-72.00775991
9N3,SEAMANS FLD,FACTORYVILLE,PENNSYLVANIA,68.17660851062716,0.0,0,41.58935472,-75.75608055
S20,GOLDENDALE,GOLDENDALE,WASHINGTON,68.17417476919574,0.0,0,45.83207388,-120.84527472
I64,ORTNER,WAKEMAN,OHIO,68.16605453485815,0.0,0,41.29349166,-82.37236111
HZX,ISEDOR IVERSON,MC GREGOR,MINNESOTA,68.15448744669447,0.0,0,46.61879722,-93.30981111
2L0,PINEVILLE MUNI,PINEVILLE,LOUISIANA,68.14191385712982,0.0,0,31.34219166,-92.44357777
4ND8,SANDEN,WYNDMERE,NORTH DAKOTA,68.12980986426516,0.0,0,46.35412861,-97.11703194
95D,BEULAH,BEULAH,NORTH DAKOTA,68.12880895593918,0.0,0,47.25121388,-101.81504305
W29,BAY BRIDGE,STEVENSVILLE,MARYLAND,68.10891810198441,0.0,0,38.97645472,-76.32996694
2F0,IRAAN MUNI,IRAAN,TEXAS,68.09445302605904,0.0,0,30.90622222,-101.88980555
52F,AERO VALLEY,ROANOKE,TEXAS,68.09445302605904,0.0,0,33.04984472,-97.2322375
FRR,FRONT ROYAL-WARREN COUNTY,FRONT ROYAL,VIRGINIA,68.09188728863452,0.0,0,38.91751222,-78.25337333
1H6,HARVEY YOUNG,TULSA,OKLAHOMA,68.08667583387249,0.0,0,36.13891666,-95.82505555
2RR,RIVER RANCH RESORT,RIVER RANCH,FLORIDA,68.08514878019837,0.0,0,27.77933333,-81.20391666
E52,OLDHAM COUNTY,VEGA,TEXAS,68.08309540152732,0.0,0,35.23071388,-102.39876805
U56,RIGBY,RIGBY,IDAHO,68.08296388324135,0.0,0,43.642725,-111.9291625
33K,KINSLEY MUNI,KINSLEY,KANSAS,68.0828866307829,0.0,0,37.90899444,-99.40310555
1H5,WILLOW SPRINGS MEML,WILLOW SPRINGS,MISSOURI,68.07659220790566,0.0,0,36.98961805,-91.95407638
N05,HACKETTSTOWN,HACKETTSTOWN,NEW JERSEY,68.07530083651926,0.0,0,40.82009916,-74.85516722
2O8,HINTON MUNI,HINTON,OKLAHOMA,68.06906868498015,0.0,0,35.50722222,-98.34255555
Y23,CHETEK MUNI/SOUTHWORTH,CHETEK,WISCONSIN,68.06844667651643,0.0,0,45.30648755,-91.63682302
W75,HUMMEL FLD,SALUDA,VIRGINIA,68.06836810787551,0.0,0,37.60361472,-76.44645444
52S,ST IGNATIUS,ST IGNATIUS,MONTANA,68.06155474139618,0.0,0,47.325,-114.08083333
2B1,CAPE COD,MARSTON MILLS,MASSACHUSETTS,68.05776211320686,0.0,0,41.68527777,-70.40225
55Y,RUSHFORD MUNI/ROBERT W BUNKE FLD,RUSHFORD,MINNESOTA,68.0522788500802,0.0,0,43.815825,-91.830095
5G0,LE ROY,LE ROY,NEW YORK,68.05197763290958,0.0,0,42.98128138,-77.93524805
92C,CARTER,PULASKI,WISCONSIN,68.05178241636726,0.0,0,44.64106902,-88.21520258
D59,GOWANDA,GOWANDA,NEW YORK,68.04195137143263,0.0,0,42.50394972,-78.95059
N89,JOSEPH Y RESNICK,ELLENVILLE,NEW YORK,68.04195137143263,0.0,0,41.72888583,-74.37682388
G05,FINLEYVILLE AIRPARK,FINLEYVILLE,PENNSYLVANIA,68.03589858653531,0.0,0,40.24545,-80.00981388
D54,WEST FARGO MUNI,FARGO,NORTH DAKOTA,68.02389419211588,0.0,0,46.90038055,-96.91852222
12V,ONA AIRPARK,MILTON,WEST VIRGINIA,68.02264420148727,0.0,0,38.44088888,-82.20077777
06Y,HERMAN MUNI,HERMAN,MINNESOTA,68.0207144576036,0.0,0,45.82996055,-96.16061444
N40,SKY MANOR,PITTSTOWN,NEW JERSEY,68.01101057603391,0.0,0,40.56588222,-74.97930805
7S3,STARK'S TWIN OAKS AIRPARK,HILLSBORO,OREGON,67.98968398231796,0.0,0,45.42845027,-122.94215694
7B3,HAMPTON AIRFIELD,HAMPTON,NEW HAMPSHIRE,67.98439023676562,0.0,0,42.96126805,-70.83015416
76F,VAN ZANDT COUNTY RGNL,WILLS POINT,TEXAS,67.97725786567703,0.0,0,32.68141666,-95.98413888
T67,HICKS AIRFIELD,FORT WORTH,TEXAS,67.97725786567703,0.0,0,32.93123666,-97.41168583
W05,GETTYSBURG RGNL,GETTYSBURG,PENNSYLVANIA,67.97262310020464,0.0,0,39.84130916,-77.27465
22I,VINTON COUNTY,MC ARTHUR,OHIO,67.97261824143057,0.0,0,39.32798888,-82.44115694
F89,WINNSBORO MUNI,WINNSBORO,LOUISIANA,67.94017580238038,0.0,0,32.15302777,-91.69858333
8A7,TWIN LAKES,MOCKSVILLE,NORTH CAROLINA,67.91839930708115,0.0,0,35.914915,-80.45680638
O09,ROUND VALLEY,COVELO,CALIFORNIA,67.91612341627525,0.0,0,39.7905,-123.26633333
VKX,POTOMAC AIRFIELD,FRIENDLY,MARYLAND,67.89428369083159,0.0,0,38.74864166,-76.95592222
SD13,HOFER,DOLAND,SOUTH DAKOTA,67.89414900804773,0.0,0,44.86749166,-98.07468333
O41,WATTS-WOODLAND,WOODLAND,CALIFORNIA,67.89321234677188,0.0,0,38.67387638,-121.87207722
AJO,CORONA MUNI,CORONA,CALIFORNIA,67.89205133116344,0.0,0,33.89765408,-117.60243975
2W2,CLEARVIEW AIRPARK,WESTMINSTER,MARYLAND,67.88874895003124,0.0,0,39.46701833,-77.01743194
K71,LINCOLN MUNI,LINCOLN,KANSAS,67.88870663172625,0.0,0,39.05806194,-98.16699722
8K8,CIMARRON MUNI,CIMARRON,KANSAS,67.88778385969927,0.0,0,37.83286472,-100.34815833
4V4,NORTHWOOD MUNI/VINCE FLD,NORTHWOOD,NORTH DAKOTA,67.87008326431888,0.0,0,47.7248875,-97.58981111
1N1,SANDIA AIRPARK ESTATES EAST,EDGEWOOD,NEW MEXICO,67.86282262775129,0.0,0,35.09461111,-106.16455555
DUH,TOLEDO SUBURBAN,LAMBERTVILLE,MICHIGAN,67.85873990443478,0.0,0,41.735875,-83.65576388
C04,OCEANA COUNTY,HART/SHELBY,MICHIGAN,67.85873990443478,0.0,0,43.64163333,-86.32906611
69N,SLATINGTON,SLATINGTON,PENNSYLVANIA,67.85323786243214,0.0,0,40.76359405,-75.60485241
57D,RAY COMMUNITY,RAY,MICHIGAN,67.85051315784429,0.0,0,42.73675155,-82.88883755
HTW,LAWRENCE COUNTY AIRPARK,CHESAPEAKE/HUNTINGTON WVA,OHIO,67.8472050361606,0.0,0,38.41911111,-82.49483333
OVL,OLIVIA RGNL,OLIVIA,MINNESOTA,67.84367705189612,0.0,0,44.77857194,-95.03277833
PEX,PAYNESVILLE MUNI,PAYNESVILLE,MINNESOTA,67.84367705189612,0.0,0,45.37206352,-94.7447263
61D,PLAINWELL MUNI,PLAINWELL,MICHIGAN,67.84246411859722,0.0,0,42.467791,-85.64801344
6M2,HORSESHOE BEND,HORSESHOE BEND,ARKANSAS,67.84015569492001,0.0,0,36.22136138,-91.75547388
27R,ELDORADO,ELDORADO,TEXAS,67.83884111936742,0.0,0,30.86222222,-100.61086111
EAG,EAGLE GROVE MUNI,EAGLE GROVE,IOWA,67.83796051733069,0.0,0,42.70991666,-93.91611111
7M2,MOUNTAIN VIEW WILCOX MEML FLD,MOUNTAIN VIEW,ARKANSAS,67.83633876918604,0.0,0,35.86448027,-92.09033861
5M4,FORDYCE MUNI,FORDYCE,ARKANSAS,67.83633876918604,0.0,0,33.84579222,-92.36552888
Y63,ELBOW LAKE MUNI/PRIDE OF THE PRAIRIE,ELBOW LAKE,MINNESOTA,67.83563794799693,0.0,0,45.98616666,-95.98575
Y73,STAMBAUGH,IRON RIVER,MICHIGAN,67.83442501469803,0.0,0,46.07881944,-88.6355
EDU,UNIVERSITY,DAVIS,CALIFORNIA,67.83354904243517,0.0,0,38.53146222,-121.78646388
S37,SMOKETOWN,SMOKETOWN,PENNSYLVANIA,67.83201054022055,0.0,0,40.04159305,-76.20189583
27IA,OLDFIELD AERO,KEOSAUQUA,IOWA,67.82556980742143,0.0,0,40.75145138,-92.03082222
1F7,AIRPARK EAST,DALLAS,TEXAS,67.82344693788004,0.0,0,32.81294444,-96.35202777
84R,SMITHVILLE CRAWFORD MUNI,SMITHVILLE,TEXAS,67.82344693788004,0.0,0,30.02820777,-97.16703916
50R,LOCKHART MUNI,LOCKHART,TEXAS,67.82344693788004,0.0,0,29.85033333,-97.67241666
AOV,AVA BILL MARTIN MEML,AVA,MISSOURI,67.81694374425838,0.0,0,36.97188722,-92.68194583
0N0,ROOSTERVILLE,LIBERTY,MISSOURI,67.8166163336589,0.0,0,39.28983333,-94.44244444
3O3,PURCELL MUNI - STEVEN E SHEPHARD FLD,PURCELL,OKLAHOMA,67.81275499124942,0.0,0,34.98334972,-97.38263833
X23,UMATILLA MUNI,UMATILLA,FLORIDA,67.81076563070978,0.0,0,28.924735,-81.65178111
6V5,BISON MUNI,BISON,SOUTH DAKOTA,67.80390530417728,0.0,0,45.51833333,-102.46783333
TZV,TOMPKINSVILLE/MONROE COUNTY,TOMPKINSVILLE,KENTUCKY,67.80147455012104,0.0,0,36.72902777,-85.65238888
C40,MILLER,BLUFFTON,INDIANA,67.79483446473425,0.0,0,40.71671333,-85.24997083
9N7,FARMERS PRIDE,FREDERICKSBURG,PENNSYLVANIA,67.78048070061752,0.0,0,40.44286833,-76.44162722
58N,REIGLE FLD,PALMYRA,PENNSYLVANIA,67.78048070061752,0.0,0,40.28676666,-76.5769875
63B,LIMINGTON-HARMON,LIMINGTON,MAINE,67.76460991709585,0.0,0,43.76302777,-70.67247222
82TS,ELMDALE AIRPARK,ABILENE,TEXAS,67.75806356677168,0.0,0,32.45012555,-99.65036361
CNP,BILLY G RAY FLD,CHAPPELL,NEBRASKA,67.753603870208,0.0,0,41.07747222,-102.46405555
O45,HOOKER MUNI,HOOKER,OKLAHOMA,67.7442822988548,0.0,0,36.85708305,-101.22709166
3TE,AL MEYERS,TECUMSEH,MICHIGAN,67.74419970635415,0.0,0,42.02511083,-83.93929694
4D9,ALMA MUNI,ALMA,NEBRASKA,67.73016165043973,0.0,0,40.11247222,-99.34641666
ETC,TARBORO-EDGECOMBE,TARBORO,NORTH CAROLINA,67.72506217580676,0.0,0,35.93726305,-77.54648027
1O5,MONTAGUE-YREKA ROHRER FLD,MONTAGUE,CALIFORNIA,67.71438536152581,0.0,0,41.72998333,-122.54448055
1CO5,MELON FLD,ROCKY FORD,COLORADO,67.70001877108716,0.0,0,38.01528638,-103.69911555
10CO,MACK MESA,MACK,COLORADO,67.70001877108716,0.0,0,39.26811111,-108.86402777
O42,WOODLAKE,WOODLAKE,CALIFORNIA,67.69987521549749,0.0,0,36.39877777,-119.10680555
1C1,PAXTON,PAXTON,ILLINOIS,67.69882445648702,0.0,0,40.44897888,-88.12773805
0Q3,SONOMA VALLEY,SCHELLVILLE/SONOMA,CALIFORNIA,67.68984895402053,0.0,0,38.22394225,-122.449711
SD50,HARROLD MUNI,HARROLD,SOUTH DAKOTA,67.66695177376603,0.0,0,44.53130555,-99.74766666
1KS4,PRICHARD AIRSTRIP,ENTERPRISE,KANSAS,67.65306706530788,0.0,0,38.89677222,-97.11353472
6PA4,SCANDIA AIR PARK,RUSSELL,PENNSYLVANIA,67.64665668417965,0.0,0,41.930615,-79.03420861
7T7,SKYWEST INC,MIDLAND,TEXAS,67.64078621377686,0.0,0,31.85508333,-102.07394444
F43,EL DORADO DOWNTOWN-STEVENS FLD,EL DORADO,ARKANSAS,67.63377315981532,0.0,0,33.19125,-92.66322222
68S,DAVENPORT,DAVENPORT,WASHINGTON,67.62588183680377,0.0,0,47.65206027,-118.17377305
2TE2,FLYING OAKS,FORT WORTH,TEXAS,67.61886070279711,0.0,0,32.82926666,-97.53494305
24C,LOWELL CITY,LOWELL,MICHIGAN,67.60682455217885,0.0,0,42.95465833,-85.34561666
76G,MARINE CITY,MARINE CITY,MICHIGAN,67.60682455217885,0.0,0,42.72137916,-82.59626527
9G2,PRICES,LINDEN,MICHIGAN,67.60682455217885,0.0,0,42.80761111,-83.76897222
1D2,CANTON-PLYMOUTH-METTETAL,PLYMOUTH,MICHIGAN,67.60356489229656,0.0,0,42.34780555,-83.45633333
I67,CINCINNATI WEST,HARRISON,OHIO,67.60153920826528,0.0,0,39.25926861,-84.77430555
1G1,ELYRIA,ELYRIA,OHIO,67.60153920826528,0.0,0,41.33152777,-82.10025
8G6,HARRISON COUNTY,CADIZ,OHIO,67.60153920826528,0.0,0,40.23837027,-81.01288388
6G4,WYNKOOP,MOUNT VERNON,OHIO,67.60153920826528,0.0,0,40.36506222,-82.49571805
7P5,PISO,SURING,WISCONSIN,67.59551545021723,0.0,0,45.06588055,-88.42704861
7B2,NORTHAMPTON,NORTHAMPTON,MASSACHUSETTS,67.59013752252511,0.0,0,42.32800972,-72.61124027
2R1,LE MAIRE MEML,JEANERETTE,LOUISIANA,67.5870182881653,0.0,0,29.89906944,-91.666
79D,PHILIPPI/BARBOUR COUNTY RGNL,PHILIPPI,WEST VIRGINIA,67.58538946779024,0.0,0,39.16619027,-80.06234861
1M8,MYRICKS,BERKLEY,MASSACHUSETTS,67.58336183541716,0.0,0,41.83905555,-71.02647222
48Y,PINEY PINECREEK BORDER,PINECREEK,MINNESOTA,67.58242314623034,0.0,0,48.99897494,-95.98208613
D07,FAITH MUNI,FAITH,SOUTH DAKOTA,67.56955162250955,0.0,0,45.03516527,-102.02068472
T20,ROGER M DREYER MEML,GONZALES,TEXAS,67.56620453684245,0.0,0,29.52912361,-97.46430277
7F7,CLIFTON MUNI/ISENHOWER FLD,CLIFTON,TEXAS,67.56620453684245,0.0,0,31.81713333,-97.56956944
K08,HOLLY,HOLLY,COLORADO,67.56513140801398,0.0,0,38.03512361,-102.11667083
FL25,HCA FLORIDA MERCY HOSPITAL,MIAMI,FLORIDA,67.55732547391005,0.0,0,25.739375,-80.21318611
FA40,HIDDEN LAKE,NEW PORT RICHEY,FLORIDA,67.55682395641891,0.0,0,28.28308333,-82.6407
F92,KINGFISHER,KINGFISHER,OKLAHOMA,67.55555365707626,0.0,0,35.87667222,-97.9529375
DWX,DIXON,DIXON,WYOMING,67.55547595265533,0.0,0,41.03744138,-107.49252805
W91,SMITH MOUNTAIN LAKE,MONETA,VIRGINIA,67.55485307997162,0.0,0,37.10772222,-79.59247222
8W2,NEW MARKET,NEW MARKET,VIRGINIA,67.55485307997162,0.0,0,38.65598472,-78.70849583
S35,OKANOGAN LEGION,OKANOGAN,WASHINGTON,67.54180480850947,0.0,0,48.36191805,-119.56756
98G,SEBEWAING TOWNSHIP,SEBEWAING,MICHIGAN,67.53927463181121,0.0,0,43.72950752,-83.46360225
08C,RIVERVIEW,JENISON,MICHIGAN,67.53927463181121,0.0,0,42.93672263,-85.8057525
14G,FREMONT,FREMONT,OHIO,67.53724894777993,0.0,0,41.33308333,-83.16119444
1V2,GRANT COUNTY,HYANNIS,NEBRASKA,67.53682451916534,0.0,0,42.00999444,-101.77006388
6MN9,BENSON,WHITE BEAR TOWNSHIP,MINNESOTA,67.53372096351545,0.0,0,45.11663333,-92.99605055
00N,BUCKS,BRIDGETON,NEW JERSEY,67.52612618822396,0.0,0,39.47373919,-75.18456752
ND43,FLYING S RANCH,MINOT,NORTH DAKOTA,67.49668921414823,0.0,0,48.20414583,-101.40451527
1M7,FULTON,FULTON,KENTUCKY,67.48508160188281,0.0,0,36.52563888,-88.91783333
I93,BRECKINRIDGE COUNTY,HARDINSBURG,KENTUCKY,67.48508160188281,0.0,0,37.78480555,-86.44127777
K50,COOK AIRFIELD,ROSE HILL,KANSAS,67.46701883131877,0.0,0,37.56538519,-97.17462486
47K,MOUNDRIDGE MUNI,MOUNDRIDGE,KANSAS,67.46701883131877,0.0,0,38.20909166,-97.502725
K83,SABETHA MUNI,SABETHA,KANSAS,67.46701883131877,0.0,0,39.90544444,-95.77669444
TS96,EL CAMPO AIRPARK,EL CAMPO,TEXAS,67.4637834753565,0.0,0,29.26691611,-96.32524333
9CL0,TURLOCK AIRPARK,TURLOCK,CALIFORNIA,67.45420938760216,0.0,0,37.47076833,-120.84409388
1O2,LAMPSON FLD,LAKEPORT,CALIFORNIA,67.45420938760216,0.0,0,38.99061111,-122.90072222
O61,CAMERON PARK,CAMERON PARK,CALIFORNIA,67.45420938760216,0.0,0,38.684,-120.98752777
3FK,FRANKLIN FLYING FLD,FRANKLIN,INDIANA,67.45415776613154,0.0,0,39.42643888,-86.05832194
RCK,H H COFFIELD RGNL,ROCKDALE,TEXAS,67.44925162515483,0.0,0,30.63137638,-96.9894875
3VS,ROY OTTEN MEML AIRFIELD,VERSAILLES,MISSOURI,67.44643584593095,0.0,0,38.42827222,-92.87526388
O38,GUNDYS,OWASSO,OKLAHOMA,67.43918699363553,0.0,0,36.26676277,-95.78359638
W13,EAGLE'S NEST,WAYNESBORO,VIRGINIA,67.43848641653089,0.0,0,38.0769375,-78.9444375
3M8,NORTH PICKENS,REFORM,ALABAMA,67.43477847621818,0.0,0,33.38675277,-88.00657916
1D3,PLATTE MUNI,PLATTE,SOUTH DAKOTA,67.43223497937464,0.0,0,43.40471525,-98.83049091
38D,SALEM AIRPARK,SALEM,OHIO,67.41875063415846,0.0,0,40.94808083,-80.86208194
MGG,MAPLE LAKE MUNI-BILL MAVENCAMP SR FLD,MAPLE LAKE,MINNESOTA,67.41522264989398,0.0,0,45.23599277,-93.98558888
I66,CLINTON FLD,WILMINGTON,OHIO,67.41197494705051,0.0,0,39.50247805,-83.86331083
7G8,GEAUGA COUNTY,MIDDLEFIELD,OHIO,67.41034671975837,0.0,0,41.44959555,-81.06293444
6J0,LEXINGTON COUNTY,PELION,SOUTH CAROLINA,67.41017046446811,0.0,0,33.79463888,-81.24586111
DVP,SLAYTON MUNI,SLAYTON,MINNESOTA,67.40844696278603,0.0,0,43.98680027,-95.78261027
